[{"Code":"2101","Parent":"21","Name":"KARIMUN","Latitude":"0.83569337550009","Longitude":"103.6330277465","Postal":"29600"},{"Code":"2102","Parent":"21","Name":"BINTAN","Latitude":"0.91333299500008","Longitude":"105.907927998","Postal":"29100"},{"Code":"2103","Parent":"21","Name":"NATUNA","Latitude":"3.6266285765001","Longitude":"108.4434784785","Postal":"29700"},{"Code":"2104","Parent":"21","Name":"LINGGA","Latitude":"-0.39403255849996","Longitude":"104.9327196445","Postal":"29800"},{"Code":"2105","Parent":"21","Name":"KEPULAUAN ANAMBAS","Latitude":"2.9036125345001","Longitude":"106.0410902015","Postal":"29900,29700"},{"Code":"2171","Parent":"21","Name":"BATAM","Latitude":"0.83443180200005","Longitude":"104.01324324","Postal":"29400"},{"Code":"2172","Parent":"21","Name":"TANJUNG PINANG","Latitude":"0.91496728299998","Longitude":"104.44465917799","Postal":"29100"}]