[{"Code":"3301","Parent":"33","Name":"CILACAP","Latitude":"-7.4617926294997","Longitude":"108.975677523","Postal":"53200"},{"Code":"3302","Parent":"33","Name":"BANYUMAS","Latitude":"-7.4550014805016","Longitude":"109.16857303602","Postal":"53100"},{"Code":"3303","Parent":"33","Name":"PURBALINGGA","Latitude":"-7.3273398259996","Longitude":"109.40409471699","Postal":"53300"},{"Code":"3304","Parent":"33","Name":"BANJARNEGARA","Latitude":"-7.3559572345001","Longitude":"109.639572153","Postal":"53400"},{"Code":"3305","Parent":"33","Name":"KEBUMEN","Latitude":"-7.6439075334995","Longitude":"109.60932489399","Postal":"54300,54400"},{"Code":"3306","Parent":"33","Name":"PURWOREJO","Latitude":"-7.7080096385022","Longitude":"109.96996416103","Postal":"54100,54200"},{"Code":"3307","Parent":"33","Name":"WONOSOBO","Latitude":"-7.3997965639985","Longitude":"109.90568031648","Postal":"56300"},{"Code":"3308","Parent":"33","Name":"MAGELANG","Latitude":"-7.5135657684998","Longitude":"110.2447700535","Postal":"56500,56100"},{"Code":"3309","Parent":"33","Name":"BOYOLALI","Latitude":"-7.3870917050007","Longitude":"110.61941960451","Postal":"57300"},{"Code":"3310","Parent":"33","Name":"KLATEN","Latitude":"-7.6748008914986","Longitude":"110.62291234298","Postal":"57400"},{"Code":"3311","Parent":"33","Name":"SUKOHARJO","Latitude":"-7.6828478519992","Longitude":"110.83143372099","Postal":"57500,57100"},{"Code":"3312","Parent":"33","Name":"WONOGIRI","Latitude":"-7.9620542204999","Longitude":"111.03673934","Postal":"57600"},{"Code":"3313","Parent":"33","Name":"KARANGANYAR","Latitude":"-7.6195984104992","Longitude":"110.95142614499","Postal":"57700,57100"},{"Code":"3314","Parent":"33","Name":"SRAGEN","Latitude":"-7.3922762105023","Longitude":"110.96214033603","Postal":"57200"},{"Code":"3315","Parent":"33","Name":"GROBOGAN","Latitude":"-7.0979246739993","Longitude":"110.89420039099","Postal":"58100"},{"Code":"3316","Parent":"33","Name":"BLORA","Latitude":"-7.1105530440001","Longitude":"111.3682098195","Postal":"58200,58300"},{"Code":"3317","Parent":"33","Name":"REMBANG","Latitude":"-6.7698511444979","Longitude":"111.46235456747","Postal":"59200"},{"Code":"3318","Parent":"33","Name":"PATI","Latitude":"-6.704944615499","Longitude":"111.03706358948","Postal":"59100"},{"Code":"3319","Parent":"33","Name":"KUDUS","Latitude":"-6.797649732499","Longitude":"110.86797858398","Postal":"59300"},{"Code":"3320","Parent":"33","Name":"JEPARA","Latitude":"-6.2610282910001","Longitude":"110.5697367535","Postal":"59400"},{"Code":"3321","Parent":"33","Name":"DEMAK","Latitude":"-6.9228927935002","Longitude":"110.65107858551","Postal":"59500"},{"Code":"3322","Parent":"33","Name":"SEMARANG","Latitude":"-7.2877925444991","Longitude":"110.45660877299","Postal":"50500,50100,50700"},{"Code":"3323","Parent":"33","Name":"TEMANGGUNG","Latitude":"-7.2398993775022","Longitude":"110.13151821554","Postal":"56200"},{"Code":"3324","Parent":"33","Name":"KENDAL","Latitude":"-7.0234539974994","Longitude":"110.13940039599","Postal":"51300"},{"Code":"3325","Parent":"33","Name":"BATANG","Latitude":"-7.0316747825","Longitude":"109.863384257","Postal":"51200"},{"Code":"3326","Parent":"33","Name":"PEKALONGAN","Latitude":"-7.0423557979997","Longitude":"109.6410703335","Postal":"51100"},{"Code":"3327","Parent":"33","Name":"PEMALANG","Latitude":"-7.0119075039996","Longitude":"109.392391423","Postal":"52300"},{"Code":"3328","Parent":"33","Name":"TEGAL","Latitude":"-7.0553844200015","Longitude":"109.15591633203","Postal":"52400,52100"},{"Code":"3329","Parent":"33","Name":"BREBES","Latitude":"-7.0548122435003","Longitude":"108.93423009101","Postal":"52200"},{"Code":"3371","Parent":"33","Name":"MAGELANG","Latitude":"-7.4726190325441","Longitude":"110.21975708564","Postal":"56100"},{"Code":"3372","Parent":"33","Name":"SURAKARTA","Latitude":"-7.5592091250341","Longitude":"110.8190335605","Postal":"57100"},{"Code":"3373","Parent":"33","Name":"SALATIGA","Latitude":"-7.3373898180214","Longitude":"110.50159367581","Postal":"50700"},{"Code":"3374","Parent":"33","Name":"SEMARANG","Latitude":"-7.0230536624956","Longitude":"110.38724231643","Postal":"50100,50200,50600"},{"Code":"3375","Parent":"33","Name":"PEKALONGAN","Latitude":"-6.8937202954809","Longitude":"109.67834855219","Postal":"51100"},{"Code":"3376","Parent":"33","Name":"TEGAL","Latitude":"-6.8697605984777","Longitude":"109.11827839765","Postal":"52100"}]