[{"Code":"3601","Parent":"36","Name":"PANDEGLANG","Latitude":"-6.6191650834998","Longitude":"105.637810942","Postal":"42200"},{"Code":"3602","Parent":"36","Name":"LEBAK","Latitude":"-6.6433056650002","Longitude":"106.1945918285","Postal":"42300"},{"Code":"3603","Parent":"36","Name":"TANGERANG","Latitude":"-6.183197886001","Longitude":"106.53189471902","Postal":"15200,15500,15600,15700,15800,15900,15100"},{"Code":"3604","Parent":"36","Name":"SERANG","Latitude":"-6.0720973230002","Longitude":"106.1185691985","Postal":"42100,42400"},{"Code":"3671","Parent":"36","Name":"TANGERANG","Latitude":"-6.1766874384992","Longitude":"106.65003389099","Postal":"15100"},{"Code":"3672","Parent":"36","Name":"CILEGON","Latitude":"-5.978372304994","Longitude":"106.0048470269","Postal":"42400"},{"Code":"3673","Parent":"36","Name":"SERANG","Latitude":"-6.1002788109995","Longitude":"106.16059028099","Postal":"42100"},{"Code":"3674","Parent":"36","Name":"TANGERANG SELATAN","Latitude":"-6.2955984469994","Longitude":"106.70831253049","Postal":"15300,15400,15200"}]