[{"Code":"6301","Parent":"63","Name":"TANAH LAUT","Latitude":"-3.8436361385","Longitude":"114.947129617","Postal":"70800"},{"Code":"6302","Parent":"63","Name":"KOTA BARU","Latitude":"-3.5252648264999","Longitude":"116.0356123405","Postal":"72100"},{"Code":"6303","Parent":"63","Name":"BANJAR","Latitude":"-3.2794484069999","Longitude":"115.051218302","Postal":"70600,71200"},{"Code":"6304","Parent":"63","Name":"BARITO KUALA","Latitude":"-3.0301500104998","Longitude":"114.604197507","Postal":"70500"},{"Code":"6305","Parent":"63","Name":"TAPIN","Latitude":"-2.8679875699999","Longitude":"115.1551341505","Postal":"71100"},{"Code":"6306","Parent":"63","Name":"HULU SUNGAI SELATAN","Latitude":"-2.7181263265","Longitude":"115.2328751045","Postal":"71200"},{"Code":"6307","Parent":"63","Name":"HULU SUNGAI TENGAH","Latitude":"-2.6114856465","Longitude":"115.5242027315","Postal":"71300"},{"Code":"6308","Parent":"63","Name":"HULU SUNGAI UTARA","Latitude":"-2.4297511029996","Longitude":"115.13147157099","Postal":"71400"},{"Code":"6309","Parent":"63","Name":"TABALONG","Latitude":"-1.8369814999999","Longitude":"115.453871753","Postal":"71500,72100"},{"Code":"6310","Parent":"63","Name":"TANAH BUMBU","Latitude":"-3.4452579835","Longitude":"115.667333514","Postal":"72200"},{"Code":"6311","Parent":"63","Name":"BALANGAN","Latitude":"-2.2851866789999","Longitude":"115.5865071455","Postal":"71600"},{"Code":"6371","Parent":"63","Name":"BANJARMASIN","Latitude":"-3.324683255001","Longitude":"114.59076881403","Postal":"70100,70200"},{"Code":"6372","Parent":"63","Name":"BANJAR BARU","Latitude":"-3.4838891675005","Longitude":"114.81413313652","Postal":"70700"}]