[{"Code":"8101","Parent":"81","Name":"MALUKU TENGGARA BARAT","Latitude":"-7.500420725","Longitude":"131.380255455","Postal":"97400"},{"Code":"8102","Parent":"81","Name":"MALUKU TENGGARA","Latitude":"-5.6551404865","Longitude":"132.8095664745","Postal":"97600"},{"Code":"8103","Parent":"81","Name":"MALUKU TENGAH","Latitude":"-3.6653730309999","Longitude":"129.006698944","Postal":"97500"},{"Code":"8104","Parent":"81","Name":"BURU","Latitude":"-3.344873264","Longitude":"126.6907954145","Postal":"97300,97500"},{"Code":"8105","Parent":"81","Name":"KEPULAUAN ARU","Latitude":"-6.2126109819997","Longitude":"134.4798207095","Postal":"97600"},{"Code":"8106","Parent":"81","Name":"SERAM BAGIAN BARAT","Latitude":"-2.4735520359999","Longitude":"128.2036726155","Postal":"97500"},{"Code":"8107","Parent":"81","Name":"SERAM BAGIAN TIMUR","Latitude":"-3.8787739219999","Longitude":"130.879507067","Postal":"97500"},{"Code":"8108","Parent":"81","Name":"MALUKU BARAT DAYA","Latitude":"-7.2892733064998","Longitude":"127.905638101","Postal":"97400,97100,97600"},{"Code":"8109","Parent":"81","Name":"BURU SELATAN","Latitude":"-3.5084263154999","Longitude":"126.6195983825","Postal":"97300,97500"},{"Code":"8171","Parent":"81","Name":"AMBON","Latitude":"-3.6837122659999","Longitude":"128.1649322875","Postal":"97100,97200"},{"Code":"8172","Parent":"81","Name":"TUAL","Latitude":"-5.4489547675002","Longitude":"132.37140292751","Postal":"97600"}]