[{"Code":"1101010","Parent":"1101","Name":"TEUPAH SELATAN","Latitude":"2.2738827445","Longitude":"96.513062697495","Postal":"23895,23898"},{"Code":"1101020","Parent":"1101","Name":"SIMEULUE TIMUR","Latitude":"2.5382471300006","Longitude":"96.316215958525","Postal":"23891"},{"Code":"1101021","Parent":"1101","Name":"TEUPAH BARAT","Latitude":"2.4483287785","Longitude":"96.220352578001","Postal":"23896,23897"},{"Code":"1101022","Parent":"1101","Name":"TEUPAH TENGAH","Latitude":"2.407087034502","Longitude":"96.346351218077","Postal":"23899"},{"Code":"1101030","Parent":"1101","Name":"SIMEULUE TENGAH","Latitude":"2.6260558764982","Longitude":"96.048626298931","Postal":"23894"},{"Code":"1101031","Parent":"1101","Name":"TELUK DALAM","Latitude":"2.6478292040003","Longitude":"96.153125367008","Postal":"23897,23890"},{"Code":"1101032","Parent":"1101","Name":"SIMEULUE CUT","Latitude":"2.6047916045046","Longitude":"95.934081918672","Postal":"23895"},{"Code":"1101040","Parent":"1101","Name":"SALANG","Latitude":"2.6728654114999","Longitude":"95.854035678992","Postal":"23893,23896"},{"Code":"1101050","Parent":"1101","Name":"SIMEULUE BARAT","Latitude":"2.7946343975001","Longitude":"95.953281501003","Postal":"23892"},{"Code":"1101051","Parent":"1101","Name":"ALAFAN","Latitude":"2.8612178494998","Longitude":"95.602882879992","Postal":"23898,23893"}]