[{"Code":"1108010","Parent":"1108","Name":"LHOONG","Latitude":"5.2644545975026","Longitude":"95.286277800045","Postal":"23353,23354"},{"Code":"1108020","Parent":"1108","Name":"LHOKNGA","Latitude":"5.4683436600094","Longitude":"95.260858740162","Postal":"23353,23355"},{"Code":"1108021","Parent":"1108","Name":"LEUPUNG","Latitude":"5.3437342189859","Longitude":"95.311398239746","Postal":"23355,23353"},{"Code":"1108030","Parent":"1108","Name":"INDRAPURI","Latitude":"5.4175645800037","Longitude":"95.457928860066","Postal":"23363,23385,23955,23365"},{"Code":"1108031","Parent":"1108","Name":"KUTA COT GLIE","Latitude":"5.3423054139977","Longitude":"95.47178003996","Postal":"23955,23364"},{"Code":"1108040","Parent":"1108","Name":"SEULIMEUM","Latitude":"5.4676679619995","Longitude":"95.638938335989","Postal":"23951"},{"Code":"1108041","Parent":"1108","Name":"KOTA JANTHO","Latitude":"5.1861663900002","Longitude":"95.680536840003","Postal":"23911,23913,23914,23915,23916,23917,23919,23951,23918"},{"Code":"1108042","Parent":"1108","Name":"LEMBAH SEULAWAH","Latitude":"5.3673237900073","Longitude":"95.707380240126","Postal":"23952"},{"Code":"1108050","Parent":"1108","Name":"MESJID RAYA","Latitude":"5.5766870620019","Longitude":"95.498233548033","Postal":"23381"},{"Code":"1108060","Parent":"1108","Name":"DARUSSALAM","Latitude":"5.5950632550062","Longitude":"95.418407520101","Postal":"23374,23373,23371,23955,23372"},{"Code":"1108061","Parent":"1108","Name":"BAITUSSALAM","Latitude":"5.5998474204671","Longitude":"95.383099799441","Postal":"23374,23373,23372"},{"Code":"1108070","Parent":"1108","Name":"KUTA BARO","Latitude":"5.5564172099942","Longitude":"95.426614259897","Postal":"23374,23373,23955,23372"},{"Code":"1108080","Parent":"1108","Name":"MONTASIK","Latitude":"5.4963121049948","Longitude":"95.459457239912","Postal":"23362"},{"Code":"1108081","Parent":"1108","Name":"BLANG BINTANG","Latitude":"5.5281017249859","Longitude":"95.440394159751","Postal":"23368,23955,23360"},{"Code":"1108090","Parent":"1108","Name":"INGIN JAYA","Latitude":"5.5092169359708","Longitude":"95.374367099492","Postal":"23371,23955"},{"Code":"1108091","Parent":"1108","Name":"KRUENG BARONA JAYA","Latitude":"5.5495346293983","Longitude":"95.36308343823","Postal":"23367,23370"},{"Code":"1108100","Parent":"1108","Name":"SUKA MAKMUR","Latitude":"5.4328208850135","Longitude":"95.364281520232","Postal":"23361"},{"Code":"1108101","Parent":"1108","Name":"KUTA MALAKA","Latitude":"5.4306297450436","Longitude":"95.395370400749","Postal":"23364,23365"},{"Code":"1108102","Parent":"1108","Name":"SIMPANG TIGA","Latitude":"5.4515708999907","Longitude":"95.342833619833","Postal":"23366,23365,23375"},{"Code":"1108110","Parent":"1108","Name":"DARUL IMARAH","Latitude":"5.5052557470079","Longitude":"95.314937760144","Postal":"23352,23955"},{"Code":"1108111","Parent":"1108","Name":"DARUL KAMAL","Latitude":"5.4657405000665","Longitude":"95.324808241158","Postal":"23366,23365,23350"},{"Code":"1108120","Parent":"1108","Name":"PEUKAN BADA","Latitude":"5.5411243634905","Longitude":"95.221380274334","Postal":"23351"},{"Code":"1108130","Parent":"1108","Name":"PULO ACEH","Latitude":"5.6781442610054","Longitude":"95.102543627094","Postal":"23391"}]