[{"Code":"1117010","Parent":"1117","Name":"TIMANG GAJAH","Latitude":"4.7939933559997","Longitude":"96.772100823495","Postal":"24555,24553"},{"Code":"1117011","Parent":"1117","Name":"GAJAH PUTIH","Latitude":"4.8076647480146","Longitude":"96.743332930297","Postal":"24592,24553"},{"Code":"1117020","Parent":"1117","Name":"PINTU RIME GAYO","Latitude":"4.8976150760001","Longitude":"96.764684905501","Postal":"24593,24554"},{"Code":"1117030","Parent":"1117","Name":"BUKIT","Latitude":"4.7306250935014","Longitude":"96.874653190522","Postal":"24581"},{"Code":"1117040","Parent":"1117","Name":"WIH PESAM","Latitude":"4.726951950498","Longitude":"96.781369717457","Postal":"24591,24580"},{"Code":"1117050","Parent":"1117","Name":"BANDAR","Latitude":"4.7081014375028","Longitude":"96.942911364558","Postal":"24582"},{"Code":"1117051","Parent":"1117","Name":"BENER KELIPAH","Latitude":"4.7731071894875","Longitude":"96.927352732251","Postal":"24586,24583"},{"Code":"1117060","Parent":"1117","Name":"SYIAH UTAMA","Latitude":"4.7449995474999","Longitude":"97.1540612825","Postal":"24585,24586"},{"Code":"1117061","Parent":"1117","Name":"MESIDAH","Latitude":"4.7693449424992","Longitude":"97.057899675482","Postal":"24584"},{"Code":"1117070","Parent":"1117","Name":"PERMATA","Latitude":"4.8237963054953","Longitude":"96.933348421905","Postal":"24583,24585"}]