[{"Code":"1175010","Parent":"1175","Name":"SIMPANG KIRI","Latitude":"2.7170371044996","Longitude":"98.002955230479","Postal":"24882,24781"},{"Code":"1175020","Parent":"1175","Name":"PENANGGALAN","Latitude":"2.6439747869986","Longitude":"98.050489279453","Postal":"24881,24780"},{"Code":"1175030","Parent":"1175","Name":"RUNDENG","Latitude":"2.7016292004992","Longitude":"97.852649391972","Postal":"24884,24779"},{"Code":"1175040","Parent":"1175","Name":"SULTAN DAULAT","Latitude":"2.8510614990003","Longitude":"97.937012055507","Postal":"24883,24783"},{"Code":"1175050","Parent":"1175","Name":"LONGKIB","Latitude":"2.577678794","Longitude":"97.891430587996","Postal":"24885,24782"}]