[{"Code":"1206030","Parent":"1206","Name":"BALIGE","Latitude":"2.3072397850006","Longitude":"99.080927766527","Postal":"22311,22312,22313,22314,22315,22316,22319"},{"Code":"1206031","Parent":"1206","Name":"TAMPAHAN","Latitude":"2.308453996497","Longitude":"99.015075289864","Postal":"22352,22312"},{"Code":"1206040","Parent":"1206","Name":"LAGUBOTI","Latitude":"2.3289226924998","Longitude":"99.163328922987","Postal":"22381,22385"},{"Code":"1206050","Parent":"1206","Name":"HABINSARAN","Latitude":"2.3571095950001","Longitude":"99.3401903615","Postal":"22383,22385"},{"Code":"1206051","Parent":"1206","Name":"BORBOR","Latitude":"2.2084481339997","Longitude":"99.276301663983","Postal":"22354,22383"},{"Code":"1206052","Parent":"1206","Name":"NASSAU","Latitude":"2.3364996314988","Longitude":"99.483598137953","Postal":"22355,22383"},{"Code":"1206060","Parent":"1206","Name":"SILAEN","Latitude":"2.4201684175009","Longitude":"99.282431813037","Postal":"22386,22382"},{"Code":"1206061","Parent":"1206","Name":"SIGUMPAR","Latitude":"2.390074822994","Longitude":"99.179668455255","Postal":"22353,22380"},{"Code":"1206070","Parent":"1206","Name":"PORSEA","Latitude":"2.4777914850006","Longitude":"99.131211000027","Postal":"22384"},{"Code":"1206071","Parent":"1206","Name":"PINTU POHAN MERANTI","Latitude":"2.5404452155008","Longitude":"99.337408039028","Postal":"22388,22384"},{"Code":"1206072","Parent":"1206","Name":"SIANTAR NARUMONDA","Latitude":"2.4578625149953","Longitude":"99.214665653808","Postal":"22356,22384"},{"Code":"1206073","Parent":"1206","Name":"PARMAKSIAN","Latitude":"2.4885098119974","Longitude":"99.1929880799","Postal":"22357,22384"},{"Code":"1206080","Parent":"1206","Name":"LUMBAN JULU","Latitude":"2.5675075815009","Longitude":"99.02975518253","Postal":"22386,22382,22388"},{"Code":"1206081","Parent":"1206","Name":"ULUAN","Latitude":"2.452006906496","Longitude":"99.081285725829","Postal":"22383,22381,22385"},{"Code":"1206082","Parent":"1206","Name":"AJIBATA","Latitude":"2.6076895459998","Longitude":"98.94893428449","Postal":"22389,22382,22386"},{"Code":"1206083","Parent":"1206","Name":"BONATUA LUNASI","Latitude":"2.5334285810082","Longitude":"99.132577020322","Postal":"22387"}]