[{"Code":"1209010","Parent":"1209","Name":"SILIMAKUTA","Latitude":"2.9429558110005","Longitude":"98.643410663515","Postal":"21167,21169"},{"Code":"1209011","Parent":"1209","Name":"PEMATANG SILIMAHUTA","Latitude":"2.9488369685023","Longitude":"98.570474146076","Postal":"21195,21157,21167"},{"Code":"1209020","Parent":"1209","Name":"PURBA","Latitude":"2.9069935070004","Longitude":"98.706408870512","Postal":"21169,21195,21165,21157,21166"},{"Code":"1209021","Parent":"1209","Name":"HARANGGAOL HORISON","Latitude":"2.8588208220037","Longitude":"98.684687545624","Postal":"21166,21177"},{"Code":"1209040","Parent":"1209","Name":"SIDAMANIK","Latitude":"2.8408205710011","Longitude":"98.952247561035","Postal":"21171"},{"Code":"1209041","Parent":"1209","Name":"PEMATANG SIDAMANIK","Latitude":"2.7924046605012","Longitude":"98.894479092542","Postal":"21195,21175,21188"},{"Code":"1209050","Parent":"1209","Name":"GIRSANG SIPANGAN BOLON","Latitude":"2.6790009199987","Longitude":"98.967791749951","Postal":"21174"},{"Code":"1209060","Parent":"1209","Name":"TANAH JAWA","Latitude":"2.8747990224997","Longitude":"99.19272569649","Postal":"21181"},{"Code":"1209061","Parent":"1209","Name":"HATONDUHAN","Latitude":"2.7373680514995","Longitude":"99.138549846981","Postal":"21191,21178"},{"Code":"1209070","Parent":"1209","Name":"DOLOK PANRIBUAN","Latitude":"2.7829890000009","Longitude":"99.031939920035","Postal":"21173"},{"Code":"1209080","Parent":"1209","Name":"JORLANG HATARAN","Latitude":"2.8148809949976","Longitude":"99.014301539912","Postal":"21173,21172,21195"},{"Code":"1209090","Parent":"1209","Name":"PANEI","Latitude":"2.9004237944944","Longitude":"98.940968540805","Postal":"21161,21167,21157"},{"Code":"1209091","Parent":"1209","Name":"PANOMBEAN PANEI","Latitude":"2.9539887949983","Longitude":"98.98620687194","Postal":"21195,21165"},{"Code":"1209100","Parent":"1209","Name":"RAYA","Latitude":"2.9794171609992","Longitude":"98.885464558974","Postal":"21162,21157,21160"},{"Code":"1209101","Parent":"1209","Name":"DOLOG MASAGAL","Latitude":"","Longitude":"","Postal":"21164"},{"Code":"1209110","Parent":"1209","Name":"DOLOK SILAU","Latitude":"3.0874941299999","Longitude":"98.692380579996","Postal":"21168"},{"Code":"1209120","Parent":"1209","Name":"SILAU KAHEAN","Latitude":"3.1629921570016","Longitude":"98.868031842551","Postal":"21157"},{"Code":"1209130","Parent":"1209","Name":"RAYA KAHEAN","Latitude":"3.1132272755014","Longitude":"98.914350480542","Postal":"21195,21156"},{"Code":"1209140","Parent":"1209","Name":"TAPIAN DOLOK","Latitude":"3.0708194220018","Longitude":"99.056689608065","Postal":"21195,21154"},{"Code":"1209150","Parent":"1209","Name":"DOLOK BATU NANGGAR","Latitude":"3.118892677","Longitude":"99.159233894499","Postal":"21155"},{"Code":"1209160","Parent":"1209","Name":"SIANTAR","Latitude":"2.9387461724992","Longitude":"99.103015454973","Postal":"21195,21157,21151"},{"Code":"1209161","Parent":"1209","Name":"GUNUNG MALELA","Latitude":"3.0232745029953","Longitude":"99.201974049344","Postal":"21153,21195,21175"},{"Code":"1209162","Parent":"1209","Name":"GUNUNG MALIGAS","Latitude":"3.0454906549995","Longitude":"99.143776568482","Postal":"21194,21176"},{"Code":"1209170","Parent":"1209","Name":"HUTABAYU RAJA","Latitude":"3.0165544309996","Longitude":"99.296709047483","Postal":"21182"},{"Code":"1209171","Parent":"1209","Name":"JAWA MARAJA BAH JAMBI","Latitude":"2.9639665565018","Longitude":"99.216619777558","Postal":"21192,21153"},{"Code":"1209180","Parent":"1209","Name":"PEMATANG BANDAR","Latitude":"3.1034011334979","Longitude":"99.236457258939","Postal":"21186"},{"Code":"1209181","Parent":"1209","Name":"BANDAR HULUAN","Latitude":"3.1585324630013","Longitude":"99.220153661036","Postal":"21193,21184"},{"Code":"1209190","Parent":"1209","Name":"BANDAR","Latitude":"3.161992733499","Longitude":"99.323876029971","Postal":"21184,21162"},{"Code":"1209191","Parent":"1209","Name":"BANDAR MASILAM","Latitude":"3.250710641502","Longitude":"99.288690269061","Postal":"21185,21157"},{"Code":"1209200","Parent":"1209","Name":"BOSAR MALIGAS","Latitude":"3.0293129919999","Longitude":"99.388770865994","Postal":"21183"},{"Code":"1209210","Parent":"1209","Name":"UJUNG PADANG","Latitude":"3.0037044274994","Longitude":"99.461419582479","Postal":"21187"}]