[{"Code":"1210030","Parent":"1210","Name":"SIDIKALANG","Latitude":"2.7383904360047","Longitude":"98.316284179663","Postal":"22211,22212,22213,22214,22215,22216,22217,22218,22219"},{"Code":"1210031","Parent":"1210","Name":"BERAMPU","Latitude":"2.732710506506","Longitude":"98.250993128217","Postal":"22256,22251"},{"Code":"1210032","Parent":"1210","Name":"SITINJO","Latitude":"2.7046257080024","Longitude":"98.36356528108","Postal":"22257,22219"},{"Code":"1210040","Parent":"1210","Name":"PARBULUAN","Latitude":"2.6431884765016","Longitude":"98.467477637055","Postal":"22282"},{"Code":"1210050","Parent":"1210","Name":"SUMBUL","Latitude":"2.7529277600008","Longitude":"98.431220421521","Postal":"22281,22284"},{"Code":"1210051","Parent":"1210","Name":"SILAHISABUNGAN","Latitude":"2.7686359144999","Longitude":"98.524159095489","Postal":"22284,22280"},{"Code":"1210060","Parent":"1210","Name":"SILIMA PUNGGA-PUNGGA","Latitude":"2.8567994699973","Longitude":"98.052685081904","Postal":"22262"},{"Code":"1210061","Parent":"1210","Name":"LAE PARIRA","Latitude":"2.7844275989983","Longitude":"98.179912580943","Postal":"22264,22281"},{"Code":"1210070","Parent":"1210","Name":"SIEMPAT NEMPU","Latitude":"2.8121032715012","Longitude":"98.22679237254","Postal":"22261"},{"Code":"1210080","Parent":"1210","Name":"SIEMPAT NEMPU HULU","Latitude":"2.8196105955011","Longitude":"98.276977539031","Postal":"22254"},{"Code":"1210090","Parent":"1210","Name":"SIEMPAT NEMPU HILIR","Latitude":"2.8883056640001","Longitude":"98.058157195007","Postal":"22263"},{"Code":"1210100","Parent":"1210","Name":"TIGA LINGGA","Latitude":"2.8925115050019","Longitude":"98.250832400065","Postal":"22252"},{"Code":"1210101","Parent":"1210","Name":"GUNUNG SITEMBER","Latitude":"2.9384134700022","Longitude":"98.146869343069","Postal":"22255,22250"},{"Code":"1210110","Parent":"1210","Name":"PEGAGAN HILIR","Latitude":"2.8581479010002","Longitude":"98.385471912508","Postal":"22283,22274"},{"Code":"1210120","Parent":"1210","Name":"TANAH PINEM","Latitude":"3.007808411","Longitude":"98.166512128499","Postal":"22253"}]