[{"Code":"1213010","Parent":"1213","Name":"BOHOROK","Latitude":"3.4347749739996","Longitude":"98.073878797989","Postal":"20771,20774"},{"Code":"1213011","Parent":"1213","Name":"SIRAPIT","Latitude":"3.5708651064988","Longitude":"98.306279516964","Postal":"20776,20775"},{"Code":"1213020","Parent":"1213","Name":"SALAPIAN","Latitude":"3.4343819959986","Longitude":"98.307321580961","Postal":"20774,20773,20777"},{"Code":"1213021","Parent":"1213","Name":"KUTAMBARU","Latitude":"3.3323775655005","Longitude":"98.278937581016","Postal":"20775,20773"},{"Code":"1213030","Parent":"1213","Name":"SEI BINGAI","Latitude":"3.3997217380004","Longitude":"98.437465425012","Postal":"20771"},{"Code":"1213040","Parent":"1213","Name":"KUALA","Latitude":"3.4330623794998","Longitude":"98.390233625995","Postal":"20772"},{"Code":"1213050","Parent":"1213","Name":"SELESAI","Latitude":"3.6060537644994","Longitude":"98.377968365478","Postal":"20762"},{"Code":"1213060","Parent":"1213","Name":"BINJAI","Latitude":"3.6599818129929","Longitude":"98.4636523523","Postal":"20761"},{"Code":"1213070","Parent":"1213","Name":"STABAT","Latitude":"3.7331941755042","Longitude":"98.456615534605","Postal":"20811,20812,20813,20814,20815,20817,20818,20819,20816"},{"Code":"1213080","Parent":"1213","Name":"WAMPU","Latitude":"3.7098771904987","Longitude":"98.350754822465","Postal":"20885,20851"},{"Code":"1213090","Parent":"1213","Name":"BATANG SERANGAN","Latitude":"3.7011320620005","Longitude":"98.048261638013","Postal":"20883,20852"},{"Code":"1213100","Parent":"1213","Name":"SAWIT SEBERANG","Latitude":"3.8214515299999","Longitude":"98.252035644995","Postal":"20884,20811"},{"Code":"1213110","Parent":"1213","Name":"PADANG TUALANG","Latitude":"3.8015272665006","Longitude":"98.327834001513","Postal":"20852,20850"},{"Code":"1213120","Parent":"1213","Name":"HINAI","Latitude":"3.8407323204985","Longitude":"98.425442859464","Postal":"20854"},{"Code":"1213130","Parent":"1213","Name":"SECANGGANG","Latitude":"3.8598901554999","Longitude":"98.565048542494","Postal":"20855"},{"Code":"1213140","Parent":"1213","Name":"TANJUNG PURA","Latitude":"3.9645244264983","Longitude":"98.47947524096","Postal":"20853"},{"Code":"1213150","Parent":"1213","Name":"GEBANG","Latitude":"3.9837145915008","Longitude":"98.376495621014","Postal":"20856"},{"Code":"1213160","Parent":"1213","Name":"BABALAN","Latitude":"4.0242692810054","Longitude":"98.342488100627","Postal":"20857"},{"Code":"1213170","Parent":"1213","Name":"SEI LEPAN","Latitude":"3.9061437850001","Longitude":"98.156996308999","Postal":"20882,20776"},{"Code":"1213180","Parent":"1213","Name":"BRANDAN BARAT","Latitude":"4.0306461030036","Longitude":"98.254975291588","Postal":"20881"},{"Code":"1213190","Parent":"1213","Name":"BESITANG","Latitude":"3.9832383375002","Longitude":"98.061818721","Postal":"20859"},{"Code":"1213200","Parent":"1213","Name":"PANGKALAN SUSU","Latitude":"4.1624843005031","Longitude":"98.21692711307","Postal":"20858"},{"Code":"1213201","Parent":"1213","Name":"PEMATANG JAYA","Latitude":"4.1924011699988","Longitude":"98.160148235471","Postal":"20891,20858,20859"}]