[{"Code":"1215010","Parent":"1215","Name":"PAKKAT","Latitude":"2.1575926230004","Longitude":"98.439660217014","Postal":"22455,22453"},{"Code":"1215020","Parent":"1215","Name":"ONAN GANJANG","Latitude":"2.1084121635004","Longitude":"98.624179805018","Postal":"22454,22453"},{"Code":"1215030","Parent":"1215","Name":"SIJAMA POLANG","Latitude":"2.1331463390006","Longitude":"98.71780902653","Postal":"22481,22459"},{"Code":"1215040","Parent":"1215","Name":"DOLOK SANGGUL","Latitude":"2.2559789965002","Longitude":"98.702700868006","Postal":"22457,22453,22452"},{"Code":"1215050","Parent":"1215","Name":"LINTONG NIHUTA","Latitude":"2.2619481550006","Longitude":"98.863394748524","Postal":"22475"},{"Code":"1215060","Parent":"1215","Name":"PARANGINAN","Latitude":"2.2889537739992","Longitude":"98.928933327467","Postal":"22482,22477"},{"Code":"1215070","Parent":"1215","Name":"BAKTI RAJA","Latitude":"2.3347540539966","Longitude":"98.824505309857","Postal":"22459,22457"},{"Code":"1215080","Parent":"1215","Name":"POLLUNG","Latitude":"2.3545120234996","Longitude":"98.698197958482","Postal":"22483,22457"},{"Code":"1215090","Parent":"1215","Name":"PARLILITAN","Latitude":"2.3590857314999","Longitude":"98.428840982993","Postal":"22456"},{"Code":"1215100","Parent":"1215","Name":"TARA BINTANG","Latitude":"2.2693425599999","Longitude":"98.386778731494","Postal":"22474,22485,22451"}]