[{"Code":"1220010","Parent":"1220","Name":"BATANG ONANG","Latitude":"1.3323430969999","Longitude":"99.487369552988","Postal":"22763,22761,22765,22762"},{"Code":"1220020","Parent":"1220","Name":"PADANG BOLAK JULU","Latitude":"1.4963984070002","Longitude":"99.477191930011","Postal":"22781,22753"},{"Code":"1220030","Parent":"1220","Name":"PORTIBI","Latitude":"1.4056495255003","Longitude":"99.665388909516","Postal":"22782,22741"},{"Code":"1220040","Parent":"1220","Name":"PADANG BOLAK","Latitude":"1.5393488255001","Longitude":"99.653030386502","Postal":"22756,22753,22754"},{"Code":"1220041","Parent":"1220","Name":"PADANG BOLAK TENGGARA","Latitude":"","Longitude":"","Postal":"22751"},{"Code":"1220050","Parent":"1220","Name":"SIMANGAMBAT","Latitude":"1.5410234265","Longitude":"100.1214257205","Postal":"22783,22747"},{"Code":"1220051","Parent":"1220","Name":"UJUNG BATU","Latitude":"","Longitude":"","Postal":"22746"},{"Code":"1220060","Parent":"1220","Name":"HALONGONAN","Latitude":"1.6366896615001","Longitude":"99.785442263006","Postal":"22784,22753"},{"Code":"1220061","Parent":"1220","Name":"HALONGONAN TIMUR","Latitude":"","Longitude":"","Postal":"22752"},{"Code":"1220070","Parent":"1220","Name":"DOLOK","Latitude":"1.8423845100001","Longitude":"99.692333475001","Postal":"22759,22756,22753"},{"Code":"1220080","Parent":"1220","Name":"DOLOK SIGOMPULON","Latitude":"1.9700513505006","Longitude":"99.700502546529","Postal":"22785,22784,22757"},{"Code":"1220090","Parent":"1220","Name":"HULU SIHAPAS","Latitude":"1.4580908169976","Longitude":"99.426889496334","Postal":"22740"}]