[{"Code":"1222010","Parent":"1222","Name":"SUNGAI KANAN","Latitude":"1.727204532","Longitude":"99.8728481115","Postal":"21571,21465"},{"Code":"1222020","Parent":"1222","Name":"TORGAMBA","Latitude":"1.7256099430001","Longitude":"100.226393777","Postal":"21572,21466"},{"Code":"1222030","Parent":"1222","Name":"KOTA PINANG","Latitude":"1.88530041","Longitude":"100.086755508","Postal":"21511,21512,21513,21514,21515,21516,21517,21518,21519,21464"},{"Code":"1222040","Parent":"1222","Name":"SILANGKITANG","Latitude":"1.8749218814999","Longitude":"99.937382189492","Postal":"21561,21461"},{"Code":"1222050","Parent":"1222","Name":"KAMPUNG RAKYAT","Latitude":"2.0444987255002","Longitude":"100.18989647801","Postal":"21563,21463"}]