[{"Code":"1224010","Parent":"1224","Name":"TUGALA OYO","Latitude":"1.1305118895001","Longitude":"97.417283682505","Postal":"22842,22860"},{"Code":"1224020","Parent":"1224","Name":"ALASA","Latitude":"1.2049379985","Longitude":"97.405753581489","Postal":"22861,22863"},{"Code":"1224030","Parent":"1224","Name":"ALASA TALU MUZOI","Latitude":"1.2454533915003","Longitude":"97.454868960021","Postal":"22843,22814"},{"Code":"1224040","Parent":"1224","Name":"NAMOHALU ESIWA","Latitude":"1.3333438294999","Longitude":"97.415571911496","Postal":"22857,22853,22855,22816,22817"},{"Code":"1224050","Parent":"1224","Name":"SITOLU ORI","Latitude":"1.4013267034994","Longitude":"97.456587221956","Postal":"22844,22852"},{"Code":"1224060","Parent":"1224","Name":"TUHEMBERUA","Latitude":"1.4526208335003","Longitude":"97.462591389024","Postal":"22852"},{"Code":"1224070","Parent":"1224","Name":"SAWO","Latitude":"1.4887933335002","Longitude":"97.384090000007","Postal":"22845,22852"},{"Code":"1224080","Parent":"1224","Name":"LOTU","Latitude":"1.4236003219996","Longitude":"97.361876159472","Postal":"22856"},{"Code":"1224090","Parent":"1224","Name":"LAHEWA TIMUR","Latitude":"1.3682182875003","Longitude":"97.307566845517","Postal":"22841,22858"},{"Code":"1224100","Parent":"1224","Name":"AFULU","Latitude":"1.2435418949999","Longitude":"97.212675577484","Postal":"22857,22855"},{"Code":"1224110","Parent":"1224","Name":"LAHEWA","Latitude":"1.3608168530002","Longitude":"97.171973161013","Postal":"22857,22853,22855"}]