[{"Code":"1272010","Parent":"1272","Name":"DATUK BANDAR","Latitude":"2.9468300504934","Longitude":"99.778174959787","Postal":"21361,21362,21368,21369"},{"Code":"1272011","Parent":"1272","Name":"DATUK BANDAR TIMUR","Latitude":"2.9458868849923","Longitude":"99.816369238743","Postal":"21373,21374,21375,21376,21377,21364,21367"},{"Code":"1272020","Parent":"1272","Name":"TANJUNG BALAI SELATAN","Latitude":"2.9631106924942","Longitude":"99.802562883776","Postal":"21311,21312,21313,21314,21315,21316"},{"Code":"1272030","Parent":"1272","Name":"TANJUNG BALAI UTARA","Latitude":"2.9701283691031","Longitude":"99.802467988252","Postal":"21321,21322,21323,21324,21325"},{"Code":"1272040","Parent":"1272","Name":"SEI TUALANG RASO","Latitude":"2.9890860995044","Longitude":"99.787276169144","Postal":"21341,21342,21343,21344,21345"},{"Code":"1272050","Parent":"1272","Name":"TELUK NIBUNG","Latitude":"2.9991613300011","Longitude":"99.80000806702","Postal":"21331,21332,21333,21334,21335"}]