[{"Code":"1301011","Parent":"1301","Name":"PAGAI SELATAN","Latitude":"-3.4167887954999","Longitude":"100.599104326","Postal":"25782,25391"},{"Code":"1301012","Parent":"1301","Name":"SIKAKAP","Latitude":"-2.7718583145003","Longitude":"100.14429346401","Postal":"25772,25773,25399"},{"Code":"1301013","Parent":"1301","Name":"PAGAI UTARA","Latitude":"-2.6773458284998","Longitude":"100.03976200249","Postal":"25781,25390"},{"Code":"1301021","Parent":"1301","Name":"SIPORA SELATAN","Latitude":"-2.2485684809998","Longitude":"99.731560864492","Postal":"25772,25773,25392"},{"Code":"1301022","Parent":"1301","Name":"SIPORA UTARA","Latitude":"-2.1285399474999","Longitude":"99.612924852501","Postal":"25771,25398"},{"Code":"1301030","Parent":"1301","Name":"SIBERUT SELATAN","Latitude":"-1.4921854795","Longitude":"99.076820991002","Postal":"25793,25397"},{"Code":"1301031","Parent":"1301","Name":"SEBERUT BARAT DAYA","Latitude":"-1.6955113225","Longitude":"99.068990641502","Postal":"25393"},{"Code":"1301032","Parent":"1301","Name":"SIBERUT TENGAH","Latitude":"-1.3735173474999","Longitude":"99.045416232997","Postal":"25796,25396"},{"Code":"1301040","Parent":"1301","Name":"SIBERUT UTARA","Latitude":"-1.1794249845","Longitude":"98.905633687002","Postal":"25794,25395"},{"Code":"1301041","Parent":"1301","Name":"SIBERUT BARAT","Latitude":"-1.2291158979999","Longitude":"98.778783065","Postal":"25795,25394"}]