[{"Code":"1304050","Parent":"1304","Name":"KAMANG BARU","Latitude":"-0.78093487199997","Longitude":"101.3146551615","Postal":"27572"},{"Code":"1304060","Parent":"1304","Name":"TANJUNG GADANG","Latitude":"-0.84747841799997","Longitude":"101.141388613","Postal":"27571"},{"Code":"1304070","Parent":"1304","Name":"SIJUNJUNG","Latitude":"-0.62265421499997","Longitude":"101.0588163645","Postal":"27554"},{"Code":"1304071","Parent":"1304","Name":"LUBUK TAROK","Latitude":"-0.79385771249999","Longitude":"101.0024402435","Postal":"27553"},{"Code":"1304080","Parent":"1304","Name":"IV NAGARI","Latitude":"-0.72531205749986","Longitude":"100.88621805998","Postal":"27561"},{"Code":"1304090","Parent":"1304","Name":"KUPITAN","Latitude":"-0.71817467649987","Longitude":"100.83225180348","Postal":"27564"},{"Code":"1304100","Parent":"1304","Name":"KOTO TUJUH","Latitude":"-0.59915989850008","Longitude":"100.85605570652","Postal":"27562"},{"Code":"1304110","Parent":"1304","Name":"SUMPUR KUDUS","Latitude":"-0.45376099349997","Longitude":"100.941799335","Postal":"27563"}]