[{"Code":"1305010","Parent":"1305","Name":"X KOTO","Latitude":"-0.47473423849992","Longitude":"100.38537584599","Postal":"27151"},{"Code":"1305020","Parent":"1305","Name":"BATIPUH","Latitude":"-0.48443025999998","Longitude":"100.4662142205","Postal":"27265"},{"Code":"1305021","Parent":"1305","Name":"BATIPUH SELATAN","Latitude":"-0.58717144749992","Longitude":"100.4568445515","Postal":"27266"},{"Code":"1305030","Parent":"1305","Name":"PARIANGAN","Latitude":"-0.44560950999993","Longitude":"100.50289572799","Postal":"27264"},{"Code":"1305040","Parent":"1305","Name":"RAMBATAN","Latitude":"-0.53948974650001","Longitude":"100.57540893552","Postal":"27271"},{"Code":"1305050","Parent":"1305","Name":"LIMA KAUM","Latitude":"-0.45685159749983","Longitude":"100.56787980247","Postal":"27211,27216"},{"Code":"1305060","Parent":"1305","Name":"TANJUNG EMAS","Latitude":"-0.48015895000002","Longitude":"100.67787557851","Postal":"27280"},{"Code":"1305070","Parent":"1305","Name":"PADANG GANTING","Latitude":"-0.52640189699998","Longitude":"100.71714072501","Postal":"27282"},{"Code":"1305080","Parent":"1305","Name":"LINTAU BUO","Latitude":"-0.49378527099996","Longitude":"100.7820202735","Postal":"27292"},{"Code":"1305081","Parent":"1305","Name":"LINTAU BUO UTARA","Latitude":"-0.39493282549997","Longitude":"100.744658907","Postal":"27293"},{"Code":"1305090","Parent":"1305","Name":"SUNGAYANG","Latitude":"-0.36963722249999","Longitude":"100.62102905552","Postal":"27294"},{"Code":"1305100","Parent":"1305","Name":"SUNGAI TARAB","Latitude":"-0.40351440849992","Longitude":"100.539532072","Postal":"27261"},{"Code":"1305110","Parent":"1305","Name":"SALIMPAUNG","Latitude":"-0.34439680299995","Longitude":"100.5430799575","Postal":"27262,27263"},{"Code":"1305111","Parent":"1305","Name":"TANJUNG BARU","Latitude":"-0.32226515099993","Longitude":"100.53115056699","Postal":"27281"}]