[{"Code":"1308010","Parent":"1308","Name":"PAYAKUMBUH","Latitude":"-0.17308090399995","Longitude":"100.58760633701","Postal":"26251"},{"Code":"1308011","Parent":"1308","Name":"AKABILURU","Latitude":"-0.22447645649997","Longitude":"100.5204316","Postal":"26252"},{"Code":"1308020","Parent":"1308","Name":"LUAK","Latitude":"-0.27121036949998","Longitude":"100.68097480451","Postal":"26261"},{"Code":"1308021","Parent":"1308","Name":"LAREH SAGO HALABAN","Latitude":"-0.28846532050002","Longitude":"100.765368494","Postal":"26262"},{"Code":"1308022","Parent":"1308","Name":"SITUJUAH LIMO NAGARI","Latitude":"-0.308755351","Longitude":"100.62311716401","Postal":"26250"},{"Code":"1308030","Parent":"1308","Name":"HARAU","Latitude":"-0.11655942899991","Longitude":"100.689029729","Postal":"26271"},{"Code":"1308040","Parent":"1308","Name":"GUGUAK","Latitude":"-0.12718418449993","Longitude":"100.5188451645","Postal":"26253"},{"Code":"1308041","Parent":"1308","Name":"MUNGKA","Latitude":"-0.058683256999963","Longitude":"100.578256613","Postal":"26254"},{"Code":"1308050","Parent":"1308","Name":"SULIKI","Latitude":"-0.11550970299997","Longitude":"100.4482610735","Postal":"26255"},{"Code":"1308051","Parent":"1308","Name":"BUKIK BARISAN","Latitude":"0.02387290500005","Longitude":"100.4432844605","Postal":"26257"},{"Code":"1308060","Parent":"1308","Name":"GUNUANG OMEH","Latitude":"-0.037630247999924","Longitude":"100.341869922","Postal":"26256"},{"Code":"1308070","Parent":"1308","Name":"KAPUR IX","Latitude":"0.23357855050009","Longitude":"100.4653046645","Postal":"26273"},{"Code":"1308080","Parent":"1308","Name":"PANGKALAN KOTO BARU","Latitude":"0.10650919350008","Longitude":"100.683767449","Postal":"26272"}]