[{"Code":"1311010","Parent":"1311","Name":"SUNGAI RUMBAI","Latitude":"-1.2205457159998","Longitude":"101.75008716949","Postal":"27686"},{"Code":"1311011","Parent":"1311","Name":"KOTO BESAR","Latitude":"-1.2292885279999","Longitude":"101.560669128","Postal":"27685"},{"Code":"1311012","Parent":"1311","Name":"ASAM JUJUHAN","Latitude":"-1.503581145","Longitude":"101.57562349301","Postal":"27684"},{"Code":"1311020","Parent":"1311","Name":"KOTO BARU","Latitude":"-1.1215198755","Longitude":"101.6812683895","Postal":"27681"},{"Code":"1311021","Parent":"1311","Name":"KOTO SALAK","Latitude":"-1.1571415115","Longitude":"101.81863564201","Postal":"27680"},{"Code":"1311022","Parent":"1311","Name":"TIUMANG","Latitude":"-1.0533136919996","Longitude":"101.74399212346","Postal":"27687"},{"Code":"1311023","Parent":"1311","Name":"PADANG LAWEH","Latitude":"-1.0350410469997","Longitude":"101.77563581497","Postal":"27682"},{"Code":"1311030","Parent":"1311","Name":"SITIUNG","Latitude":"-1.0062959655","Longitude":"101.628655244","Postal":"27678"},{"Code":"1311031","Parent":"1311","Name":"TIMPEH","Latitude":"-0.90287379949995","Longitude":"101.588541431","Postal":"27679"},{"Code":"1311040","Parent":"1311","Name":"PULAU PUNJUNG","Latitude":"-1.004076732","Longitude":"101.502055463","Postal":"27573"},{"Code":"1311041","Parent":"1311","Name":"IX KOTO","Latitude":"-1.0286808305","Longitude":"101.296245599","Postal":"27683"}]