[{"Code":"1312010","Parent":"1312","Name":"SUNGAI BEREMAS","Latitude":"0.25315645800006","Longitude":"99.323396435499","Postal":"26573"},{"Code":"1312020","Parent":"1312","Name":"RANAH BATAHAN","Latitude":"0.440638009","Longitude":"99.467295909494","Postal":"26366"},{"Code":"1312030","Parent":"1312","Name":"KOTO BALINGKA","Latitude":"0.32033799450005","Longitude":"99.513846737003","Postal":"26572"},{"Code":"1312040","Parent":"1312","Name":"SUNGAI AUR","Latitude":"0.28043440950006","Longitude":"99.603626142002","Postal":"26574"},{"Code":"1312050","Parent":"1312","Name":"LEMBAH MALINTANG","Latitude":"0.35039350050009","Longitude":"99.588332519002","Postal":"26570"},{"Code":"1312060","Parent":"1312","Name":"GUNUNG TULEH","Latitude":"0.31986282750007","Longitude":"99.76383633751","Postal":"26571"},{"Code":"1312070","Parent":"1312","Name":"TALAMAU","Latitude":"0.19347453350004","Longitude":"99.927744351999","Postal":"26561"},{"Code":"1312080","Parent":"1312","Name":"PASAMAN","Latitude":"0.14124621700004","Longitude":"99.8088885705","Postal":"26566"},{"Code":"1312090","Parent":"1312","Name":"LUHAK NAN DUO","Latitude":"0.029553848000026","Longitude":"99.825212141996","Postal":"26568"},{"Code":"1312100","Parent":"1312","Name":"SASAK RANAH PASISIE","Latitude":"0.051207612500035","Longitude":"99.6536821215","Postal":"26367"},{"Code":"1312110","Parent":"1312","Name":"KINALI","Latitude":"-0.058699011499979","Longitude":"99.896939958997","Postal":"26567"}]