[{"Code":"1404010","Parent":"1404","Name":"LANGGAM","Latitude":"0.04051489500007","Longitude":"101.722313631","Postal":"28381,28380"},{"Code":"1404011","Parent":"1404","Name":"PANGKALAN KERINCI","Latitude":"0.38180165200003","Longitude":"101.83745276299","Postal":"28311,28312,28313,28314,28316,28317,28381"},{"Code":"1404012","Parent":"1404","Name":"BANDAR SEIKIJANG","Latitude":"0.42357616150005","Longitude":"101.691481575","Postal":"28352,28383"},{"Code":"1404020","Parent":"1404","Name":"PANGKALAN KURAS","Latitude":"0.032173406500052","Longitude":"101.8735166585","Postal":"28382"},{"Code":"1404021","Parent":"1404","Name":"UKUI","Latitude":"-0.21735971649994","Longitude":"101.98677643","Postal":"28388"},{"Code":"1404022","Parent":"1404","Name":"PANGKALAN LESUNG","Latitude":"-0.0095459824999629","Longitude":"102.1315775555","Postal":"28387"},{"Code":"1404030","Parent":"1404","Name":"BUNUT","Latitude":"0.29193612500005","Longitude":"102.1186025475","Postal":"28383,28386"},{"Code":"1404031","Parent":"1404","Name":"PELALAWAN","Latitude":"0.43827594300009","Longitude":"102.111756726","Postal":"28353"},{"Code":"1404032","Parent":"1404","Name":"BANDAR PETALANGAN","Latitude":"0.14863074800002","Longitude":"102.1910396515","Postal":"28354,28384"},{"Code":"1404040","Parent":"1404","Name":"KUALA KAMPAR","Latitude":"0.57005567500004","Longitude":"103.1245257715","Postal":"28384,28385"},{"Code":"1404041","Parent":"1404","Name":"KERUMUTAN","Latitude":"0.010421733500029","Longitude":"102.356466645","Postal":"28386,28352"},{"Code":"1404042","Parent":"1404","Name":"TELUK MERANTI","Latitude":"0.38797300000001","Longitude":"102.719851981","Postal":"28385,28354"}]