[{"Code":"1471010","Parent":"1471","Name":"TAMPAN","Latitude":"0.46190463900009","Longitude":"101.39091433701","Postal":"28293,28294,28295,28296,28290,28299"},{"Code":"1471011","Parent":"1471","Name":"PAYUNG SEKAKI","Latitude":"0.52855387100032","Longitude":"101.39781677355","Postal":"28231,28232,28233,28234,28292"},{"Code":"1471020","Parent":"1471","Name":"BUKIT RAYA","Latitude":"0.46550682850019","Longitude":"101.47112142952","Postal":"28284,28288,28289,28281"},{"Code":"1471021","Parent":"1471","Name":"MARPOYAN DAMAI","Latitude":"0.46714618549976","Longitude":"101.43681904095","Postal":"28251,28252,28253,28254,28255,28125,28282"},{"Code":"1471022","Parent":"1471","Name":"TENAYAN RAYA","Latitude":"0.51116087100007","Longitude":"101.53000246201","Postal":"28241,28242,28243,28244,28281,28289"},{"Code":"1471030","Parent":"1471","Name":"LIMAPULUH","Latitude":"0.54078072150044","Longitude":"101.45804836956","Postal":"28141,28142,28143,28144"},{"Code":"1471040","Parent":"1471","Name":"SAIL","Latitude":"0.51354293450192","Longitude":"101.46016677488","Postal":"28131,28132,28133"},{"Code":"1471050","Parent":"1471","Name":"PEKANBARU KOTA","Latitude":"0.51974153649949","Longitude":"101.44783567644","Postal":"28111,28112,28113,28114,28115,28116"},{"Code":"1471060","Parent":"1471","Name":"SUKAJADI","Latitude":"0.51675741149811","Longitude":"101.43841606863","Postal":"28121,28122,28123,28124,28126,28127,28128"},{"Code":"1471070","Parent":"1471","Name":"SENAPELAN","Latitude":"0.53672321850021","Longitude":"101.43779341604","Postal":"28151,28152,28153,28154,28155,28156"},{"Code":"1471080","Parent":"1471","Name":"RUMBAI","Latitude":"0.61687135699986","Longitude":"101.39158167597","Postal":"28264,28265,28266,28267,28261"},{"Code":"1471081","Parent":"1471","Name":"RUMBAI PESISIR","Latitude":"0.60046766950018","Longitude":"101.50732001302","Postal":"28271,28272,28273,28274,28275,28276,28261,28287"}]