[{"Code":"1501010","Parent":"1501","Name":"GUNUNG RAYA","Latitude":"-2.3151428644999","Longitude":"101.6416660915","Postal":"37174"},{"Code":"1501011","Parent":"1501","Name":"BUKIT KERMAN","Latitude":"-2.2592489995001","Longitude":"101.49566293451","Postal":"37176"},{"Code":"1501020","Parent":"1501","Name":"BATANG MERANGIN","Latitude":"-2.1155444959998","Longitude":"101.6909251325","Postal":"37175"},{"Code":"1501030","Parent":"1501","Name":"KELILING DANAU","Latitude":"-2.2254843384995","Longitude":"101.41261202798","Postal":"37172,37154,37173"},{"Code":"1501040","Parent":"1501","Name":"DANAU KERINCI","Latitude":"-2.0296481249998","Longitude":"101.56546080799","Postal":"37172,37154"},{"Code":"1501050","Parent":"1501","Name":"SITINJAU LAUT","Latitude":"-2.0666248329997","Longitude":"101.49047505749","Postal":"37171"},{"Code":"1501070","Parent":"1501","Name":"AIR HANGAT","Latitude":"-1.9246854775003","Longitude":"101.49443901552","Postal":"37161,37168"},{"Code":"1501071","Parent":"1501","Name":"AIR HANGAT TIMUR","Latitude":"-2.0003096355","Longitude":"101.4936289305","Postal":"37153,37167"},{"Code":"1501072","Parent":"1501","Name":"DEPATI VII","Latitude":"-2.0180049710033","Longitude":"101.35261016467","Postal":"37154,37161"},{"Code":"1501073","Parent":"1501","Name":"AIR HANGAT BARAT","Latitude":"-1.9919170450029","Longitude":"101.34358767966","Postal":"37154,37166"},{"Code":"1501080","Parent":"1501","Name":"GUNUNG KERINCI","Latitude":"-1.9083285834997","Longitude":"101.27183354199","Postal":"37162"},{"Code":"1501081","Parent":"1501","Name":"SIULAK","Latitude":"-1.9756427644997","Longitude":"101.29020157699","Postal":"37163,37167,37160"},{"Code":"1501082","Parent":"1501","Name":"SIULAK MUKAI","Latitude":"-1.8519400464995","Longitude":"101.45505744148","Postal":"37154,37166,37169"},{"Code":"1501090","Parent":"1501","Name":"KAYU ARO","Latitude":"-1.7731345349995","Longitude":"101.31810287598","Postal":"37163,37167,37164"},{"Code":"1501091","Parent":"1501","Name":"GUNUNG TUJUH","Latitude":"-1.7280866774999","Longitude":"101.3648841595","Postal":"37164,37163"},{"Code":"1501092","Parent":"1501","Name":"KAYU ARO BARAT","Latitude":"-1.7636578974997","Longitude":"101.21848945949","Postal":"37165"}]