[{"Code":"1502010","Parent":"1502","Name":"JANGKAT","Latitude":"-2.5355501379999","Longitude":"101.7576894545","Postal":"37372"},{"Code":"1502011","Parent":"1502","Name":"JANGKAT TIMUR","Latitude":"-2.607722447","Longitude":"102.00666216","Postal":"37373,37374"},{"Code":"1502020","Parent":"1502","Name":"MUARA SIAU","Latitude":"-2.3028151714998","Longitude":"101.95654630149","Postal":"37371,37370"},{"Code":"1502021","Parent":"1502","Name":"LEMBAH MASURAI","Latitude":"-2.3989873115002","Longitude":"101.90912940451","Postal":"37313,37374,37373"},{"Code":"1502022","Parent":"1502","Name":"TIANG PUMPUNG","Latitude":"-2.307112204","Longitude":"102.2490858085","Postal":"37375,37371"},{"Code":"1502030","Parent":"1502","Name":"PAMENANG","Latitude":"-2.1088622339996","Longitude":"102.52997611749","Postal":"37357,37352"},{"Code":"1502031","Parent":"1502","Name":"PAMENANG BARAT","Latitude":"-2.0774255289998","Longitude":"102.40077905199","Postal":"37355,37318"},{"Code":"1502032","Parent":"1502","Name":"RENAH PAMENANG","Latitude":"-2.1964402774992","Longitude":"102.38080346747","Postal":"37352,37351"},{"Code":"1502033","Parent":"1502","Name":"PAMENANG SELATAN","Latitude":"-2.2831635980004","Longitude":"102.37541534703","Postal":"37356,37319"},{"Code":"1502040","Parent":"1502","Name":"BANGKO","Latitude":"-2.0917866950008","Longitude":"102.30650915004","Postal":"37311,37313,37314,37319"},{"Code":"1502041","Parent":"1502","Name":"BANGKO BARAT","Latitude":"-2.1737191749998","Longitude":"102.23796056449","Postal":"37315"},{"Code":"1502042","Parent":"1502","Name":"NALO TANTAN","Latitude":"-2.0283849999996","Longitude":"102.18794492449","Postal":"37317"},{"Code":"1502043","Parent":"1502","Name":"BATANG MASUMAI","Latitude":"-2.0849421135007","Longitude":"102.18381643954","Postal":"37331,37316"},{"Code":"1502050","Parent":"1502","Name":"SUNGAI MANAU","Latitude":"-2.0962707185001","Longitude":"101.93357000001","Postal":"37361,37363"},{"Code":"1502051","Parent":"1502","Name":"RENAH PEMBARAP","Latitude":"-2.1102139234999","Longitude":"102.083276984","Postal":"37362,37368"},{"Code":"1502052","Parent":"1502","Name":"PANGKALAN JAMBU","Latitude":"-2.1274150425002","Longitude":"101.84486502751","Postal":"37363,37361"},{"Code":"1502060","Parent":"1502","Name":"TABIR","Latitude":"-1.7989048720001","Longitude":"102.26308922401","Postal":"37353,37350"},{"Code":"1502061","Parent":"1502","Name":"TABIR ULU","Latitude":"-1.9216350205009","Longitude":"102.18222890455","Postal":"37364,37356"},{"Code":"1502062","Parent":"1502","Name":"TABIR SELATAN","Latitude":"-1.9194029949998","Longitude":"102.41303402699","Postal":"37354"},{"Code":"1502063","Parent":"1502","Name":"TABIR ILIR","Latitude":"-1.7505869519998","Longitude":"102.39600416099","Postal":"37362,37368,37358"},{"Code":"1502064","Parent":"1502","Name":"TABIR TIMUR","Latitude":"-1.7108662184993","Longitude":"102.47597012146","Postal":"37367,37355"},{"Code":"1502065","Parent":"1502","Name":"TABIR LINTAS","Latitude":"-1.9309842750002","Longitude":"102.28705945901","Postal":"37366,37357"},{"Code":"1502066","Parent":"1502","Name":"MARGO TABIR","Latitude":"-1.8827195439992","Longitude":"102.36626401446","Postal":"37358,37359"},{"Code":"1502067","Parent":"1502","Name":"TABIR BARAT","Latitude":"-1.9279692565","Longitude":"101.8731673095","Postal":"37365,37353"}]