[{"Code":"1504010","Parent":"1504","Name":"MERSAM","Latitude":"-1.5589383295","Longitude":"102.9529610775","Postal":"36654"},{"Code":"1504011","Parent":"1504","Name":"MARO SEBO ULU","Latitude":"-1.7117942749999","Longitude":"102.7153743555","Postal":"36655,36653,36657,36652"},{"Code":"1504020","Parent":"1504","Name":"BATIN XXIV","Latitude":"-1.8681332429999","Longitude":"102.961448936","Postal":"36656"},{"Code":"1504030","Parent":"1504","Name":"MUARA TEMBESI","Latitude":"-1.6887135495002","Longitude":"103.10707645601","Postal":"36654,36653"},{"Code":"1504040","Parent":"1504","Name":"MUARA BULIAN","Latitude":"-1.7552509195","Longitude":"103.2457581","Postal":"36611,36612,36613,36614,36615,36619"},{"Code":"1504041","Parent":"1504","Name":"BAJUBANG","Latitude":"-2.009094896","Longitude":"103.3127225475","Postal":"36652,36615"},{"Code":"1504042","Parent":"1504","Name":"MARO SEBO ILIR","Latitude":"-1.6148012610002","Longitude":"103.18929570601","Postal":"36658,36655"},{"Code":"1504050","Parent":"1504","Name":"PEMAYUNG","Latitude":"-1.5239056939999","Longitude":"103.2522680725","Postal":"36655,36657"}]