[{"Code":"1508010","Parent":"1508","Name":"TEBO ILIR","Latitude":"-1.5561736424998","Longitude":"102.71326177999","Postal":"37572"},{"Code":"1508011","Parent":"1508","Name":"MUARA TABIR","Latitude":"-1.7278237489999","Longitude":"102.586210417","Postal":"37576,37573,37570"},{"Code":"1508020","Parent":"1508","Name":"TEBO TENGAH","Latitude":"-1.3747969085","Longitude":"102.504605674","Postal":"37512,37519,37571"},{"Code":"1508021","Parent":"1508","Name":"SUMAY","Latitude":"-1.1897755949999","Longitude":"102.4494271715","Postal":"37576,37573"},{"Code":"1508022","Parent":"1508","Name":"TENGAH ILIR","Latitude":"-1.4041647925","Longitude":"102.69357426","Postal":"37574"},{"Code":"1508030","Parent":"1508","Name":"RIMBO BUJANG","Latitude":"-1.3330189445","Longitude":"102.13755004","Postal":"37553,37551"},{"Code":"1508031","Parent":"1508","Name":"RIMBO ULU","Latitude":"-1.28893628","Longitude":"102.0016836905","Postal":"37557,37553"},{"Code":"1508032","Parent":"1508","Name":"RIMBO ILIR","Latitude":"-1.3926479105001","Longitude":"102.27574792451","Postal":"37556,37552"},{"Code":"1508040","Parent":"1508","Name":"TEBO ULU","Latitude":"-1.28128554","Longitude":"102.284388962","Postal":"37554,37555"},{"Code":"1508041","Parent":"1508","Name":"VII KOTO","Latitude":"-1.0468595385","Longitude":"101.97086672601","Postal":"37559,37561"},{"Code":"1508042","Parent":"1508","Name":"SERAI SERUMPUN","Latitude":"-1.1598761994998","Longitude":"102.28028921499","Postal":"37555,37554"},{"Code":"1508043","Parent":"1508","Name":"VII KOTO ILIR","Latitude":"-1.0503997214999","Longitude":"102.13011137549","Postal":"37558,37562"}]