[{"Code":"1572010","Parent":"1572","Name":"TANAH KAMPUNG","Latitude":"-2.0772761924988","Longitude":"101.43919005245","Postal":"37131,37132,37133,37121"},{"Code":"1572020","Parent":"1572","Name":"KUMUN DEBAI","Latitude":"-2.1655424119992","Longitude":"101.35512641996","Postal":"37134,37135,37136,37111"},{"Code":"1572030","Parent":"1572","Name":"SUNGAI PENUH","Latitude":"-2.0625868309751","Longitude":"101.40906875927","Postal":"37154,37111,37114"},{"Code":"1572031","Parent":"1572","Name":"PONDOK TINGGI","Latitude":"-2.1127913135005","Longitude":"101.34403680503","Postal":"37114,37115,37116,37111"},{"Code":"1572032","Parent":"1572","Name":"SUNGAI BUNGKAL","Latitude":"-2.0616201159987","Longitude":"101.32378899344","Postal":"37154,37111,37112"},{"Code":"1572040","Parent":"1572","Name":"HAMPARAN RAWANG","Latitude":"-2.0468710770022","Longitude":"101.41799340559","Postal":"37154,37121,37122,37123,37151"},{"Code":"1572050","Parent":"1572","Name":"PESISIR BUKIT","Latitude":"-2.0451791580004","Longitude":"101.35988557402","Postal":"37127,37128,37129,37111,37152"},{"Code":"1572051","Parent":"1572","Name":"KOTO BARU","Latitude":"-2.0345439709573","Longitude":"101.39387441991","Postal":"37154,37152"}]