[{"Code":"1604011","Parent":"1604","Name":"TANJUNG SAKTI PUMI","Latitude":"-4.1359337564981","Longitude":"103.10319151845","Postal":"31481,31581"},{"Code":"1604012","Parent":"1604","Name":"TANJUNG SAKTI PUMU","Latitude":"-4.0891683755002","Longitude":"103.00101893851","Postal":"31582"},{"Code":"1604040","Parent":"1604","Name":"KOTA AGUNG","Latitude":"-4.1348725319992","Longitude":"103.41078539598","Postal":"31465,31462,31466"},{"Code":"1604041","Parent":"1604","Name":"MULAK ULU","Latitude":"-4.0345940270029","Longitude":"103.52759303358","Postal":"31464,31466,31453"},{"Code":"1604042","Parent":"1604","Name":"TANJUNG TEBAT","Latitude":"-3.9823053624942","Longitude":"103.46130828735","Postal":"31455"},{"Code":"1604043","Parent":"1604","Name":"MULAK SEBINGKAI","Latitude":"","Longitude":"","Postal":"31454"},{"Code":"1604050","Parent":"1604","Name":"PULAU PINANG","Latitude":"-3.8602814140045","Longitude":"103.55582186162","Postal":"31463"},{"Code":"1604051","Parent":"1604","Name":"PAGAR GUNUNG","Latitude":"-3.9367745109965","Longitude":"103.56915564441","Postal":"31462,31464,31466,31460"},{"Code":"1604052","Parent":"1604","Name":"GUMAY ULU","Latitude":"-3.9350176759952","Longitude":"103.41240428388","Postal":"31465,31461"},{"Code":"1604060","Parent":"1604","Name":"JARAI","Latitude":"-3.9292183435004","Longitude":"103.17633266951","Postal":"31491,31591"},{"Code":"1604061","Parent":"1604","Name":"PAJAR BULAN","Latitude":"-3.964137036001","Longitude":"103.29915668653","Postal":"31494,31356"},{"Code":"1604062","Parent":"1604","Name":"MUARA PAYANG","Latitude":"-3.8977912744974","Longitude":"103.13750756393","Postal":"31590"},{"Code":"1604063","Parent":"1604","Name":"SUKAMERINDU","Latitude":"-3.942866997498","Longitude":"103.21700175746","Postal":"31350"},{"Code":"1604111","Parent":"1604","Name":"KIKIM BARAT","Latitude":"-3.5814322404988","Longitude":"103.21178432847","Postal":"31451,31455,31452"},{"Code":"1604112","Parent":"1604","Name":"KIKIM TIMUR","Latitude":"-3.6402796694995","Longitude":"103.39260575749","Postal":"31452,31458"},{"Code":"1604113","Parent":"1604","Name":"KIKIM SELATAN","Latitude":"-3.7584439029996","Longitude":"103.21926465799","Postal":"31451,31456"},{"Code":"1604114","Parent":"1604","Name":"KIKIM TENGAH","Latitude":"-3.6483176150055","Longitude":"103.24979159866","Postal":"31451,31454,31459"},{"Code":"1604120","Parent":"1604","Name":"LAHAT","Latitude":"-3.7172676284966","Longitude":"103.54080396141","Postal":"31411,31412,31413,31414,31415,31416,31417,31418,31419"},{"Code":"1604121","Parent":"1604","Name":"GUMAY TALANG","Latitude":"-3.7474096439989","Longitude":"103.46225683197","Postal":"31451,31456,31454,31419"},{"Code":"1604122","Parent":"1604","Name":"PSEKSU","Latitude":"-3.8199795974993","Longitude":"103.32107467298","Postal":"31457,31417,31419"},{"Code":"1604123","Parent":"1604","Name":"LAHAT SELATAN","Latitude":"","Longitude":"","Postal":"31420,31429"},{"Code":"1604131","Parent":"1604","Name":"MERAPI BARAT","Latitude":"-3.7419818100015","Longitude":"103.65145084954","Postal":"31472,31471"},{"Code":"1604132","Parent":"1604","Name":"MERAPI TIMUR","Latitude":"-3.6362240824999","Longitude":"103.6553124115","Postal":"31471,31473"},{"Code":"1604133","Parent":"1604","Name":"MERAPI SELATAN","Latitude":"-3.8683492679983","Longitude":"103.66391259047","Postal":"31473,31472"}]