[{"Code":"1605030","Parent":"1605","Name":"SUKU TENGAH LAKITAN ULU","Latitude":"-3.0766437695","Longitude":"102.716688749","Postal":"31652,30771"},{"Code":"1605031","Parent":"1605","Name":"SELANGIT","Latitude":"-3.2189696015003","Longitude":"102.67703497201","Postal":"31651,31625"},{"Code":"1605032","Parent":"1605","Name":"SUMBER HARTA","Latitude":"-3.0358052900005","Longitude":"102.95097337052","Postal":"31652,31671,30772"},{"Code":"1605040","Parent":"1605","Name":"TUGUMULYO","Latitude":"-3.1641263299975","Longitude":"102.96520355542","Postal":"31662"},{"Code":"1605041","Parent":"1605","Name":"PURWODADI","Latitude":"-3.1007064910032","Longitude":"102.98823696911","Postal":"31672,31668"},{"Code":"1605050","Parent":"1605","Name":"MUARA BELITI","Latitude":"-3.2623630449997","Longitude":"103.03701003349","Postal":"31661"},{"Code":"1605051","Parent":"1605","Name":"TIANG PUMPUNG KEPUNGUT","Latitude":"-3.3701767010006","Longitude":"103.08496103952","Postal":"31669,31660"},{"Code":"1605060","Parent":"1605","Name":"JAYALOKA","Latitude":"-3.345844458502","Longitude":"103.20351394606","Postal":"31665"},{"Code":"1605061","Parent":"1605","Name":"SUKA KARYA","Latitude":"-3.231427890501","Longitude":"103.18461709703","Postal":"31668,31665"},{"Code":"1605070","Parent":"1605","Name":"MUARA KELINGI","Latitude":"-3.040781046","Longitude":"103.2582516855","Postal":"31663,31652"},{"Code":"1605071","Parent":"1605","Name":"BULANG TENGAH SUKU ULU","Latitude":"-3.3339387235003","Longitude":"103.27894254251","Postal":"31652"},{"Code":"1605072","Parent":"1605","Name":"TUAH NEGERI","Latitude":"-3.1510020025007","Longitude":"103.10534687152","Postal":"31664"},{"Code":"1605080","Parent":"1605","Name":"MUARA LAKITAN","Latitude":"-3.175197373","Longitude":"103.366943802","Postal":"31666"},{"Code":"1605090","Parent":"1605","Name":"MEGANG SAKTI","Latitude":"-2.9850416999995","Longitude":"103.00468545598","Postal":"31657,31652"}]