[{"Code":"1607010","Parent":"1607","Name":"RANTAU BAYUR","Latitude":"-2.9858305195007","Longitude":"104.39929001253","Postal":"30967,30968"},{"Code":"1607020","Parent":"1607","Name":"BETUNG","Latitude":"-2.7800977725005","Longitude":"104.24886520052","Postal":"30958,30956"},{"Code":"1607021","Parent":"1607","Name":"SUAK TAPEH","Latitude":"-2.8178028079999","Longitude":"104.3411224225","Postal":"30951,30956,30957"},{"Code":"1607030","Parent":"1607","Name":"PULAU RIMAU","Latitude":"-2.5680953815002","Longitude":"104.45734962301","Postal":"30959"},{"Code":"1607031","Parent":"1607","Name":"TUNGKAL ILIR","Latitude":"-2.5458221705005","Longitude":"104.21882600152","Postal":"30956"},{"Code":"1607040","Parent":"1607","Name":"BANYUASIN III","Latitude":"-2.8904650485001","Longitude":"104.37500766001","Postal":"30911,30912,30913,30914,30915,30916,30917,30919,30953"},{"Code":"1607041","Parent":"1607","Name":"SEMBAWA","Latitude":"-2.8549024340002","Longitude":"104.51928661852","Postal":"30973,30953,30955"},{"Code":"1607050","Parent":"1607","Name":"TALANG KELAPA","Latitude":"-2.8371581694999","Longitude":"104.6894957315","Postal":"30961"},{"Code":"1607051","Parent":"1607","Name":"TANJUNG LAGO","Latitude":"-2.6100857389998","Longitude":"104.61584962399","Postal":"30953,30955,30960"},{"Code":"1607060","Parent":"1607","Name":"BANYUASIN I","Latitude":"-2.8647163500004","Longitude":"104.91639495202","Postal":"30966,30963"},{"Code":"1607061","Parent":"1607","Name":"AIR KUMBANG","Latitude":"-2.8789547494994","Longitude":"104.99942098998","Postal":"30966,30962"},{"Code":"1607070","Parent":"1607","Name":"RAMBUTAN","Latitude":"-3.0628205649997","Longitude":"104.91107139549","Postal":"30967,30968"},{"Code":"1607080","Parent":"1607","Name":"MUARA PADANG","Latitude":"-2.6124381695004","Longitude":"105.10807076852","Postal":"30972,30975,30974"},{"Code":"1607081","Parent":"1607","Name":"MUARA SUGIHAN","Latitude":"-2.4583299624999","Longitude":"105.324704217","Postal":"30976"},{"Code":"1607090","Parent":"1607","Name":"MAKARTI JAYA","Latitude":"-2.5071939110001","Longitude":"104.94768821351","Postal":"30972,30975"},{"Code":"1607091","Parent":"1607","Name":"AIR SALEH","Latitude":"-2.5829440404993","Longitude":"104.99769757997","Postal":"30973"},{"Code":"1607100","Parent":"1607","Name":"BANYUASIN II","Latitude":"-2.0591376689999","Longitude":"104.540960232","Postal":"30971"},{"Code":"1607110","Parent":"1607","Name":"MUARA TELANG","Latitude":"-2.6656568419997","Longitude":"104.88619138199","Postal":"30965,30974"},{"Code":"1607111","Parent":"1607","Name":"SUMBER MARGA TELANG","Latitude":"-2.5636896344992","Longitude":"104.80751659448","Postal":"30975,30974,30977"}]