[{"Code":"1611010","Parent":"1611","Name":"MUARA PINANG","Latitude":"-3.8748100404984","Longitude":"103.08212546996","Postal":"31892,31592"},{"Code":"1611020","Parent":"1611","Name":"LINTANG KANAN","Latitude":"-3.9179209240011","Longitude":"103.02810164753","Postal":"31897,31898,31593"},{"Code":"1611030","Parent":"1611","Name":"PENDOPO","Latitude":"-3.8504814245","Longitude":"102.979534788","Postal":"31898,31893,31598"},{"Code":"1611031","Parent":"1611","Name":"PENDOPO BARAT","Latitude":"-3.7606517229984","Longitude":"102.92217260046","Postal":"31898,31896,31599"},{"Code":"1611040","Parent":"1611","Name":"PASEMAH AIR KERUH","Latitude":"-3.886726770998","Longitude":"102.73887021395","Postal":"31897,31898,31893,31896,31595"},{"Code":"1611050","Parent":"1611","Name":"ULU MUSI","Latitude":"-3.758113679","Longitude":"102.755291787","Postal":"31894,31597"},{"Code":"1611051","Parent":"1611","Name":"SIKAP DALAM","Latitude":"-3.8606389805028","Longitude":"102.87177315507","Postal":"31895,31594"},{"Code":"1611060","Parent":"1611","Name":"TALANG PADANG","Latitude":"-3.6915545974996","Longitude":"102.92462192249","Postal":"31853,31596"},{"Code":"1611070","Parent":"1611","Name":"TEBING TINGGI","Latitude":"-3.6474731694999","Longitude":"103.024984043","Postal":"31811,31812,31813,31814,31815,31819,31456"},{"Code":"1611071","Parent":"1611","Name":"SALING","Latitude":"-3.506153566499","Longitude":"103.00884639997","Postal":"31854,31457"}]