[{"Code":"1701040","Parent":"1701","Name":"MANNA","Latitude":"-4.4599009610041","Longitude":"102.9413304781","Postal":"38553,38551,38511"},{"Code":"1701041","Parent":"1701","Name":"KOTA MANNA","Latitude":"-4.4413287279988","Longitude":"102.91160312897","Postal":"38511,38512,38513,38514,38515,38516,38517,38518,38519"},{"Code":"1701042","Parent":"1701","Name":"KEDURANG","Latitude":"-4.375117506","Longitude":"103.1709827025","Postal":"38553,38551,38552"},{"Code":"1701043","Parent":"1701","Name":"BUNGA MAS","Latitude":"-4.4958836059962","Longitude":"102.98780168841","Postal":"38557,38511"},{"Code":"1701044","Parent":"1701","Name":"PASAR MANNA","Latitude":"-4.4698485284992","Longitude":"102.913395912","Postal":"38523,38524,38525,38526,38527,38528,38529,38513,38518"},{"Code":"1701045","Parent":"1701","Name":"KEDURANG ILIR","Latitude":"-4.5048173585063","Longitude":"103.05828954764","Postal":"38558,38556,38552,38554"},{"Code":"1701050","Parent":"1701","Name":"SEGINIM","Latitude":"-4.4383373020009","Longitude":"103.01942795152","Postal":"38553,38556,38552"},{"Code":"1701051","Parent":"1701","Name":"AIR NIPIS","Latitude":"-4.3383931604995","Longitude":"103.11933745299","Postal":"38558,38571"},{"Code":"1701060","Parent":"1701","Name":"PINO","Latitude":"-4.3921915040031","Longitude":"102.97025164757","Postal":"38571,38570"},{"Code":"1701061","Parent":"1701","Name":"PINORAYA","Latitude":"-4.2948385840009","Longitude":"102.91815489452","Postal":"38571,38572"},{"Code":"1701062","Parent":"1701","Name":"ULU MANNA","Latitude":"-4.2703394415003","Longitude":"103.02332927551","Postal":"38579,38573"}]