[{"Code":"1705010","Parent":"1705","Name":"SEMIDANG ALAS MARAS","Latitude":"-4.2790145759963","Longitude":"102.79065184041","Postal":"38875"},{"Code":"1705020","Parent":"1705","Name":"SEMIDANG ALAS","Latitude":"-4.1362215349998","Longitude":"102.8836657555","Postal":"38873"},{"Code":"1705030","Parent":"1705","Name":"TALO","Latitude":"-4.1538797629988","Longitude":"102.66952811297","Postal":"38874"},{"Code":"1705031","Parent":"1705","Name":"ILIR TALO","Latitude":"-4.2153857345003","Longitude":"102.62171821701","Postal":"38887"},{"Code":"1705032","Parent":"1705","Name":"TALO KECIL","Latitude":"-4.2159112329948","Longitude":"102.73801474288","Postal":"38883,38888"},{"Code":"1705033","Parent":"1705","Name":"ULU TALO","Latitude":"-4.0392993795006","Longitude":"102.76371755952","Postal":"38883,38886"},{"Code":"1705040","Parent":"1705","Name":"SELUMA","Latitude":"-4.0688664725034","Longitude":"102.5626727491","Postal":"38811,38876"},{"Code":"1705041","Parent":"1705","Name":"SELUMA SELATAN","Latitude":"-4.1110725654897","Longitude":"102.53444615724","Postal":"38878"},{"Code":"1705042","Parent":"1705","Name":"SELUMA BARAT","Latitude":"-4.0545556669987","Longitude":"102.49708063997","Postal":"38883,38888,38886"},{"Code":"1705043","Parent":"1705","Name":"SELUMA TIMUR","Latitude":"-4.1012756109993","Longitude":"102.61433666498","Postal":"38885"},{"Code":"1705044","Parent":"1705","Name":"SELUMA UTARA","Latitude":"-3.9495890694996","Longitude":"102.66617081899","Postal":"38884"},{"Code":"1705050","Parent":"1705","Name":"SUKARAJA","Latitude":"-3.9153119989989","Longitude":"102.39240687497","Postal":"38877"},{"Code":"1705051","Parent":"1705","Name":"AIR PERIUKAN","Latitude":"-3.9958858109998","Longitude":"102.40993349099","Postal":"38881"},{"Code":"1705052","Parent":"1705","Name":"LUBUK SANDI","Latitude":"-3.9141791165005","Longitude":"102.53512028652","Postal":"38882"}]