[{"Code":"1708010","Parent":"1708","Name":"MUARA KEMUMU","Latitude":"-3.6094432080013","Longitude":"102.73577948304","Postal":"39375"},{"Code":"1708020","Parent":"1708","Name":"BERMANI ILIR","Latitude":"-3.6845844550026","Longitude":"102.70576463708","Postal":"39374"},{"Code":"1708030","Parent":"1708","Name":"SEBERANG MUSI","Latitude":"-3.7331754649981","Longitude":"102.63077952545","Postal":"39376,39377"},{"Code":"1708040","Parent":"1708","Name":"TEBAT KARAI","Latitude":"-3.6486178020065","Longitude":"102.63940796368","Postal":"39373"},{"Code":"1708050","Parent":"1708","Name":"KEPAHIANG","Latitude":"-3.6355312035045","Longitude":"102.56988192863","Postal":"39312,39313,39314,39315,39319,39372"},{"Code":"1708060","Parent":"1708","Name":"KABA WETAN","Latitude":"-3.5725527204961","Longitude":"102.61735130939","Postal":"39372,39376"},{"Code":"1708070","Parent":"1708","Name":"UJAN MAS","Latitude":"-3.5576274015005","Longitude":"102.52198008452","Postal":"39371,39370"},{"Code":"1708080","Parent":"1708","Name":"MERIGI","Latitude":"-3.5066722165154","Longitude":"102.52742841496","Postal":"39179,39371"}]