[{"Code":"1805010","Parent":"1805","Name":"PADANG RATU","Latitude":"-5.0790534709965","Longitude":"104.96901894793","Postal":"34275,34175"},{"Code":"1805011","Parent":"1805","Name":"SELAGAI LINGGA","Latitude":"-5.0714657379996","Longitude":"104.71985721149","Postal":"34283,34177"},{"Code":"1805012","Parent":"1805","Name":"PUBIAN","Latitude":"-5.1023889855086","Longitude":"104.85871895168","Postal":"34284,34291,34176"},{"Code":"1805013","Parent":"1805","Name":"ANAK TUHA","Latitude":"-5.0068294270018","Longitude":"105.05928630054","Postal":"34281,34161"},{"Code":"1805014","Parent":"1805","Name":"ANAK RATU AJI","Latitude":"-4.9612067985082","Longitude":"104.94703305467","Postal":"34282,35513"},{"Code":"1805020","Parent":"1805","Name":"KALIREJO","Latitude":"-5.2133413609896","Longitude":"104.9776772473","Postal":"34274,34174"},{"Code":"1805021","Parent":"1805","Name":"SENDANG AGUNG","Latitude":"-5.2041703575027","Longitude":"104.87621530506","Postal":"34285,34178"},{"Code":"1805030","Parent":"1805","Name":"BANGUNREJO","Latitude":"-5.12536127051","Longitude":"105.0345047647","Postal":"34273,34272,34173"},{"Code":"1805040","Parent":"1805","Name":"GUNUNG SUGIH","Latitude":"-4.9838586089974","Longitude":"105.21027830345","Postal":"34212,34213,34214,34215,34219,34165"},{"Code":"1805041","Parent":"1805","Name":"BEKRI","Latitude":"-5.095869309007","Longitude":"105.13522891514","Postal":"34277,34162"},{"Code":"1805042","Parent":"1805","Name":"BUMI RATU NUBAN","Latitude":"-5.0941137984984","Longitude":"105.20762840646","Postal":"34278,34160"},{"Code":"1805050","Parent":"1805","Name":"TRIMURJO","Latitude":"-5.1201082070002","Longitude":"105.25526261802","Postal":"34273,34272,34171,34172"},{"Code":"1805060","Parent":"1805","Name":"PUNGGUR","Latitude":"-5.0375953849931","Longitude":"105.28770873135","Postal":"34252,34152"},{"Code":"1805061","Parent":"1805","Name":"KOTA GAJAH","Latitude":"-4.9843575419977","Longitude":"105.33828597045","Postal":"34253,34153"},{"Code":"1805070","Parent":"1805","Name":"SEPUTIH RAMAN","Latitude":"-4.8905192954924","Longitude":"105.36312598784","Postal":"34255,34155"},{"Code":"1805080","Parent":"1805","Name":"TERBANGGI BESAR","Latitude":"-4.8913673945035","Longitude":"105.22840238658","Postal":"34269,34263,34163"},{"Code":"1805081","Parent":"1805","Name":"SEPUTIH AGUNG","Latitude":"-4.9450119315111","Longitude":"105.13075318473","Postal":"34266,34166"},{"Code":"1805082","Parent":"1805","Name":"WAY PENGUBUAN","Latitude":"-4.8428266480004","Longitude":"105.19586953451","Postal":"34291,35213"},{"Code":"1805090","Parent":"1805","Name":"TERUSAN NUNYAI","Latitude":"-4.7084269094994","Longitude":"105.21004968248","Postal":"34267,34167"},{"Code":"1805100","Parent":"1805","Name":"SEPUTIH MATARAM","Latitude":"-4.8029800245008","Longitude":"105.34999676252","Postal":"34264,34164"},{"Code":"1805101","Parent":"1805","Name":"BANDAR MATARAM","Latitude":"-4.6366358699998","Longitude":"105.5494950615","Postal":"34269,34169"},{"Code":"1805110","Parent":"1805","Name":"SEPUTIH BANYAK","Latitude":"-4.8397815305081","Longitude":"105.47265732618","Postal":"34256,34156"},{"Code":"1805111","Parent":"1805","Name":"WAY SEPUTIH","Latitude":"-4.788887910999","Longitude":"105.45337706048","Postal":"34292,34179"},{"Code":"1805120","Parent":"1805","Name":"RUMBIA","Latitude":"-4.7668697775059","Longitude":"105.57425100863","Postal":"34257,34154"},{"Code":"1805121","Parent":"1805","Name":"BUMI NABUNG","Latitude":"-4.6721424850005","Longitude":"105.55046304051","Postal":"34268,34168"},{"Code":"1805122","Parent":"1805","Name":"PUTRA RUMBIA","Latitude":"-4.8315542474931","Longitude":"105.59071587334","Postal":"34293,34157"},{"Code":"1805130","Parent":"1805","Name":"SEPUTIH SURABAYA","Latitude":"-4.6848463229999","Longitude":"105.6404499375","Postal":"34258,34158"},{"Code":"1805131","Parent":"1805","Name":"BANDAR SURABAYA","Latitude":"-4.6939832239948","Longitude":"105.75065142938","Postal":"34259,34159"}]