[{"Code":"1807010","Parent":"1807","Name":"BANJIT","Latitude":"-4.8275307474993","Longitude":"104.44819960048","Postal":"34766"},{"Code":"1807020","Parent":"1807","Name":"BARADATU","Latitude":"-4.7122698929982","Longitude":"104.52835598546","Postal":"34761"},{"Code":"1807021","Parent":"1807","Name":"GUNUNG LABUHAN","Latitude":"-4.7370922529984","Longitude":"104.58328186847","Postal":"34767,34768"},{"Code":"1807030","Parent":"1807","Name":"KASUI","Latitude":"-4.7361781554993","Longitude":"104.39590031249","Postal":"34765"},{"Code":"1807031","Parent":"1807","Name":"REBANG TANGKAS","Latitude":"-4.6759864395007","Longitude":"104.36396857801","Postal":"34784,34783,34771"},{"Code":"1807040","Parent":"1807","Name":"BLAMBANGAN UMPU","Latitude":"-4.5369614250005","Longitude":"104.47646054251","Postal":"34711,34712,34713,34719,34764"},{"Code":"1807041","Parent":"1807","Name":"WAY TUBA","Latitude":"-4.4506876260004","Longitude":"104.40701281151","Postal":"34784,34783,34772"},{"Code":"1807042","Parent":"1807","Name":"NEGERI AGUNG","Latitude":"-4.528939246499","Longitude":"104.65387270698","Postal":"34768,34773"},{"Code":"1807050","Parent":"1807","Name":"BAHUGA","Latitude":"-4.3062454205019","Longitude":"104.63724815305","Postal":"34763"},{"Code":"1807051","Parent":"1807","Name":"BUAY  BAHUGA","Latitude":"-4.2755693110067","Longitude":"104.54577605217","Postal":"34781,34767"},{"Code":"1807052","Parent":"1807","Name":"BUMI AGUNG","Latitude":"-4.3468357860033","Longitude":"104.52528094159","Postal":"34782,34760"},{"Code":"1807060","Parent":"1807","Name":"PAKUAN RATU","Latitude":"-4.4150309449996","Longitude":"104.76603905399","Postal":"34761,34762"},{"Code":"1807061","Parent":"1807","Name":"NEGARA BATIN","Latitude":"-4.3211575799986","Longitude":"104.89103138297","Postal":"34772,34769"},{"Code":"1807062","Parent":"1807","Name":"NEGERI BESAR","Latitude":"-4.4630121070009","Longitude":"104.97090980702","Postal":"34771,34774"}]