[{"Code":"1810010","Parent":"1810","Name":"PARDASUKA","Latitude":"-5.4971462234875","Longitude":"104.91475468276","Postal":"35782,35681"},{"Code":"1810020","Parent":"1810","Name":"AMBARAWA","Latitude":"-5.4094790835124","Longitude":"104.93746250825","Postal":"35776,35376"},{"Code":"1810030","Parent":"1810","Name":"PAGELARAN","Latitude":"-5.2900169484991","Longitude":"104.84929890748","Postal":"35775,35375"},{"Code":"1810031","Parent":"1810","Name":"PAGELARAN UTARA","Latitude":"-5.2871068399932","Longitude":"104.86022871087","Postal":"35370"},{"Code":"1810040","Parent":"1810","Name":"PRINGSEWU","Latitude":"-5.3554928984812","Longitude":"104.95946472763","Postal":"35711,35712,35713,35714,35715,35716,35719,35371"},{"Code":"1810050","Parent":"1810","Name":"GADING REJO","Latitude":"-5.3711606664971","Longitude":"105.01894331694","Postal":"35772,35372"},{"Code":"1810060","Parent":"1810","Name":"SUKOHARJO","Latitude":"-5.3018785884946","Longitude":"104.9773140069","Postal":"35774,35673"},{"Code":"1810070","Parent":"1810","Name":"BANYUMAS","Latitude":"-5.291314196992","Longitude":"104.90945127484","Postal":"35777,35373"},{"Code":"1810080","Parent":"1810","Name":"ADI LUWIH","Latitude":"-5.2464575795112","Longitude":"105.00148474022","Postal":"35773,35674"}]