[{"Code":"1812010","Parent":"1812","Name":"TULANG BAWANG UDIK","Latitude":"-4.5546241180003","Longitude":"105.019728662","Postal":"34491,34791"},{"Code":"1812020","Parent":"1812","Name":"TUMI JAJAR","Latitude":"-4.6706257559974","Longitude":"105.08481394095","Postal":"34492,34794"},{"Code":"1812030","Parent":"1812","Name":"TULANG BAWANG TENGAH","Latitude":"-4.550533895999","Longitude":"105.11207612048","Postal":"34411,34412,34414,34415,34416,34419,34793"},{"Code":"1812040","Parent":"1812","Name":"PAGAR DEWA","Latitude":"-4.4007479775","Longitude":"105.164298997","Postal":"34483,34487,34792"},{"Code":"1812050","Parent":"1812","Name":"LAMBU KIBANG","Latitude":"-4.3574961230005","Longitude":"105.16958441251","Postal":"34486,34787"},{"Code":"1812060","Parent":"1812","Name":"GUNUNG TERANG","Latitude":"-4.3065159555006","Longitude":"105.05711147501","Postal":"34485,34784"},{"Code":"1812061","Parent":"1812","Name":"BATU PUTIH","Latitude":"","Longitude":"","Postal":"34785"},{"Code":"1812070","Parent":"1812","Name":"GUNUNG AGUNG","Latitude":"-4.2186964239993","Longitude":"105.04219243098","Postal":"34483,34486,34783"},{"Code":"1812080","Parent":"1812","Name":"WAY KENANGA","Latitude":"-4.2358768219997","Longitude":"105.1776923345","Postal":"34484,34788"}]