[{"Code":"1904010","Parent":"1904","Name":"KOBA","Latitude":"-2.4173846225001","Longitude":"106.3333052765","Postal":"33611,33612,33613,33614,33615,33616,33617,33681"},{"Code":"1904011","Parent":"1904","Name":"LUBUK BESAR","Latitude":"-2.6035461454994","Longitude":"106.63782017848","Postal":"33686,33682"},{"Code":"1904020","Parent":"1904","Name":"PANGKALAN BARU","Latitude":"-2.1996946480004","Longitude":"106.18379768102","Postal":"33684"},{"Code":"1904021","Parent":"1904","Name":"NAMANG","Latitude":"-2.3349519974995","Longitude":"106.19604989898","Postal":"33685,33683"},{"Code":"1904030","Parent":"1904","Name":"SUNGAI SELAN","Latitude":"-2.3625435364999","Longitude":"105.995112746","Postal":"33675"},{"Code":"1904040","Parent":"1904","Name":"SIMPANG KATIS","Latitude":"-2.2821114220002","Longitude":"106.07784579701","Postal":"33674"}]