[{"Code":"1905010","Parent":"1905","Name":"PAYUNG","Latitude":"-2.5991406695002","Longitude":"106.15305812751","Postal":"33778"},{"Code":"1905011","Parent":"1905","Name":"PULAU BESAR","Latitude":"-2.8028454759993","Longitude":"106.15277199747","Postal":"33779"},{"Code":"1905020","Parent":"1905","Name":"SIMPANG RIMBA","Latitude":"-2.6345132159998","Longitude":"105.99237340549","Postal":"33777"},{"Code":"1905030","Parent":"1905","Name":"TOBOALI","Latitude":"-2.9246680699996","Longitude":"106.47248395749","Postal":"33711,33712,33714,33719,33783"},{"Code":"1905031","Parent":"1905","Name":"TUKAK SADAI","Latitude":"-3.0316127385004","Longitude":"106.65002793301","Postal":"33784"},{"Code":"1905040","Parent":"1905","Name":"AIR GEGAS","Latitude":"-2.7318532260001","Longitude":"106.43338330601","Postal":"33782"},{"Code":"1905050","Parent":"1905","Name":"LEPAR PONGOK","Latitude":"-2.9396290224999","Longitude":"106.7883549365","Postal":"33791,33792"},{"Code":"1905051","Parent":"1905","Name":"KEPULAUAN PONGOK","Latitude":"-2.8659184214948","Longitude":"107.05379817581","Postal":"33791"}]