[{"Code":"2104010","Parent":"2104","Name":"SINGKEP BARAT","Latitude":"-0.49176179199997","Longitude":"104.274585268","Postal":"29875"},{"Code":"2104011","Parent":"2104","Name":"KEPULAUAN POSEK","Latitude":"","Longitude":"","Postal":"29876"},{"Code":"2104020","Parent":"2104","Name":"SINGKEP","Latitude":"-0.55663680999986","Longitude":"104.542743402","Postal":"29871"},{"Code":"2104021","Parent":"2104","Name":"SINGKEP SELATAN","Latitude":"-0.67473785299995","Longitude":"104.6539177955","Postal":"29877,29878"},{"Code":"2104022","Parent":"2104","Name":"SINGKEP PESISIR","Latitude":"-0.40813438099998","Longitude":"104.54330555101","Postal":"29876,29870"},{"Code":"2104030","Parent":"2104","Name":"LINGGA","Latitude":"-0.64913006849994","Longitude":"105.131139093","Postal":"29811,29812,29813,29814,29815,29819,29872"},{"Code":"2104031","Parent":"2104","Name":"SELAYAR","Latitude":"-0.29744263999994","Longitude":"104.43453794299","Postal":"29856,29877"},{"Code":"2104032","Parent":"2104","Name":"LINGGA TIMUR","Latitude":"-0.25901015849998","Longitude":"104.818746446","Postal":"29852,29872"},{"Code":"2104040","Parent":"2104","Name":"LINGGA UTARA","Latitude":"-0.15138879099997","Longitude":"104.775177167","Postal":"29854,29874"},{"Code":"2104050","Parent":"2104","Name":"SENAYANG","Latitude":"0.15774857900006","Longitude":"104.553004165","Postal":"29863,29873"}]