[{"Code":"3171010","Parent":"3171","Name":"JAGAKARSA","Latitude":"-6.3304165334995","Longitude":"106.82546326999","Postal":"12530,12610,12620,12630,12640"},{"Code":"3171020","Parent":"3171","Name":"PASAR MINGGU","Latitude":"-6.2920434830728","Longitude":"106.83082629222","Postal":"12510,12520,12540,12550,12560"},{"Code":"3171030","Parent":"3171","Name":"CILANDAK","Latitude":"-6.2898023349729","Longitude":"106.79035217705","Postal":"12410,12420,12430,12440,12450"},{"Code":"3171040","Parent":"3171","Name":"PESANGGRAHAN","Latitude":"-6.2542969645456","Longitude":"106.75518808779","Postal":"12250,12260,12270,12320,12330"},{"Code":"3171050","Parent":"3171","Name":"KEBAYORAN LAMA","Latitude":"-6.2493208870503","Longitude":"106.78038159787","Postal":"12210,12220,12230,12240,12310"},{"Code":"3171060","Parent":"3171","Name":"KEBAYORAN BARU","Latitude":"-6.2432189070789","Longitude":"106.80134054988","Postal":"12110,12120,12130,12140,12150,12160,12170,12180,12190"},{"Code":"3171070","Parent":"3171","Name":"MAMPANG PRAPATAN","Latitude":"-6.250284999929","Longitude":"106.82201535829","Postal":"12710,12720,12730,12790"},{"Code":"3171080","Parent":"3171","Name":"PANCORAN","Latitude":"-6.2579477819245","Longitude":"106.84364142872","Postal":"12740,12750,12760,12770,12780"},{"Code":"3171090","Parent":"3171","Name":"TEBET","Latitude":"-6.2255232294237","Longitude":"106.85076425666","Postal":"12810,12820,12830,12840,12850,12860,12870"},{"Code":"3171100","Parent":"3171","Name":"SETIA BUDI","Latitude":"-6.2217770794945","Longitude":"106.83038932742","Postal":"12910,12920,12930,12940,12950,12960,12970,12980"}]