[{"Code":"3201010","Parent":"3201","Name":"NANGGUNG","Latitude":"-6.6595424625","Longitude":"106.52418049001","Postal":"16651,16652,16653,16654,16655,16656,16657,16658,16659,16650"},{"Code":"3201020","Parent":"3201","Name":"LEUWILIANG","Latitude":"-6.6400835224953","Longitude":"106.60979921943","Postal":"16641,16642,16643,16644,16645,16646,16647,16648,16649,16640"},{"Code":"3201021","Parent":"3201","Name":"LEUWISADENG","Latitude":"-6.5743766150285","Longitude":"106.58300244647","Postal":"16281,16282,16283,16284,16285,16286,16287,16288,16641"},{"Code":"3201030","Parent":"3201","Name":"PAMIJAHAN","Latitude":"-6.6772288314875","Longitude":"106.6593771948","Postal":"16691,16692,16693,16694,16695,16696,16697,16698,16699,16812"},{"Code":"3201040","Parent":"3201","Name":"CIBUNGBULANG","Latitude":"-6.5768866810265","Longitude":"106.66322302143","Postal":"16631,16632,16633,16634,16635,16636,16637,16638,16639,16630"},{"Code":"3201050","Parent":"3201","Name":"CIAMPEA","Latitude":"-6.578860000008","Longitude":"106.70108208812","Postal":"16621,16622,16623,16624,16625,16626,16627,16628,16629,16620"},{"Code":"3201051","Parent":"3201","Name":"TENJOLAYA","Latitude":"-6.6531995659623","Longitude":"106.7087649994","Postal":"16271,16273,16274,16275,16276,16371"},{"Code":"3201060","Parent":"3201","Name":"DRAMAGA","Latitude":"-6.586735560453","Longitude":"106.73158490773","Postal":"16681,16682,16683,16684,16685,16686,16687,16688,16689,16680"},{"Code":"3201070","Parent":"3201","Name":"CIOMAS","Latitude":"-6.6068275375195","Longitude":"106.7631252513","Postal":"16611,16612,16613,16614,16615,16616,16617,16618,16619,16610"},{"Code":"3201071","Parent":"3201","Name":"TAMANSARI","Latitude":"-6.6655436445004","Longitude":"106.74824621401","Postal":"16261,16262,16263,16264,16265,16266,16267,16268,16852,16611"},{"Code":"3201080","Parent":"3201","Name":"CIJERUK","Latitude":"-6.6825487114912","Longitude":"106.78100182785","Postal":"16781,16782,16783,16784,16785,16786,16787,16788,16789,16740"},{"Code":"3201081","Parent":"3201","Name":"CIGOMBONG","Latitude":"-6.7447805025181","Longitude":"106.82635725579","Postal":"16741,16742,16743,16744,16745,16746,16747,16748,16749,16110"},{"Code":"3201090","Parent":"3201","Name":"CARINGIN","Latitude":"-6.7301011860087","Longitude":"106.87312101314","Postal":"16731,16732,16733,16734,16735,16736,16737,16738,16739,16730"},{"Code":"3201100","Parent":"3201","Name":"CIAWI","Latitude":"-6.7019958909926","Longitude":"106.89109379538","Postal":"16721,16722,16723,16724,16725,16726,16727,16728,16729,16720"},{"Code":"3201110","Parent":"3201","Name":"CISARUA","Latitude":"-6.7056195944984","Longitude":"106.94547508748","Postal":"16751,16752,16753,16754,16755,16756,16757,16758,16759,16750"},{"Code":"3201120","Parent":"3201","Name":"MEGAMENDUNG","Latitude":"-6.6758200000131","Longitude":"106.92192990871","Postal":"16771,16772,16773,16774,16775,16776,16777,16778,16779,16770"},{"Code":"3201130","Parent":"3201","Name":"SUKARAJA","Latitude":"-6.5778530944954","Longitude":"106.85079618742","Postal":"16711,16712,16713,16714,16715,16716,16717,16718,16719"},{"Code":"3201140","Parent":"3201","Name":"BABAKAN MADANG","Latitude":"-6.5721443964986","Longitude":"106.90712103298","Postal":"16861,16862,16863,16864,16865,16866,16867,16868,16869,16810"},{"Code":"3201150","Parent":"3201","Name":"SUKAMAKMUR","Latitude":"-6.5878405794885","Longitude":"107.01380499981","Postal":"16881,16882,16883,16884,16885,16886,16887,16888,16889,16831"},{"Code":"3201160","Parent":"3201","Name":"CARIU","Latitude":"-6.5221670785095","Longitude":"107.13573387466","Postal":"16841,16842,16843,16844,16845,16846,16847,16848,16849,16840"},{"Code":"3201161","Parent":"3201","Name":"TANJUNGSARI","Latitude":"-6.614746150008","Longitude":"107.14384721613","Postal":"16266,16851,16852,16853,16854,16855,16856,16857,16858,16859,16841"},{"Code":"3201170","Parent":"3201","Name":"JONGGOL","Latitude":"-6.5063498630021","Longitude":"107.05555500004","Postal":"16831,16832,16833,16834,16835,16836,16837,16838,16839,16830"},{"Code":"3201180","Parent":"3201","Name":"CILEUNGSI","Latitude":"-6.3992458609912","Longitude":"107.00620486186","Postal":"16821,16822,16823,16824,16825,16826,16827,16828,16829,16820"},{"Code":"3201181","Parent":"3201","Name":"KELAPA NUNGGAL","Latitude":"-6.4829550000021","Longitude":"106.95870500004","Postal":"16871,16872,16873,16874,16875,16876,16877,16878,16879,16710"},{"Code":"3201190","Parent":"3201","Name":"GUNUNG PUTRI","Latitude":"-6.3882492494982","Longitude":"106.92739177446","Postal":"16961,16962,16963,16964,16965,16966,16967,16968,16969,16960"},{"Code":"3201200","Parent":"3201","Name":"CITEUREUP","Latitude":"-6.5209292125087","Longitude":"106.89606931065","Postal":"16811,16812,16813,16814,16815,16816,16817,16818,16819"},{"Code":"3201210","Parent":"3201","Name":"CIBINONG","Latitude":"-6.4824534419715","Longitude":"106.83679686352","Postal":"16911,16912,16913,16914,16915,16916,16917,16919,16918"},{"Code":"3201220","Parent":"3201","Name":"BOJONG GEDE","Latitude":"-6.4769374650261","Longitude":"106.78809323643","Postal":"16921,16922,16923,16924,16925,16926,16927,16928,16929,16920"},{"Code":"3201221","Parent":"3201","Name":"TAJUR HALANG","Latitude":"-6.4696814925194","Longitude":"106.76102000032","Postal":"16931,16932,16933,16934,16935,16936,16937,16320"},{"Code":"3201230","Parent":"3201","Name":"KEMANG","Latitude":"-6.5074516725041","Longitude":"106.72962015257","Postal":"16311,16312,16313,16314,16315,16316,16317,16318,16319,16310"},{"Code":"3201231","Parent":"3201","Name":"RANCA BUNGUR","Latitude":"-6.5200092584672","Longitude":"106.71287851347","Postal":"16251,16252,16253,16254,16255,16256,16311"},{"Code":"3201240","Parent":"3201","Name":"PARUNG","Latitude":"-6.4397099999947","Longitude":"106.70515999992","Postal":"16331,16333,16334,16335,16336,16337,16338,16339,16330"},{"Code":"3201241","Parent":"3201","Name":"CISEENG","Latitude":"-6.4591638745159","Longitude":"106.68284500026","Postal":"16381,16382,16383,16384,16385,16386,16387,16388,16389,16120"},{"Code":"3201250","Parent":"3201","Name":"GUNUNG SINDUR","Latitude":"-6.3873338899922","Longitude":"106.68729499986","Postal":"16341,16342,16343,16344,16345,16346,16347,16348,16349,16340"},{"Code":"3201260","Parent":"3201","Name":"RUMPIN","Latitude":"-6.4566397369998","Longitude":"106.640245","Postal":"16351,16352,16353,16354,16355,16356,16357,16358,16359,16350"},{"Code":"3201270","Parent":"3201","Name":"CIGUDEG","Latitude":"-6.5107200000061","Longitude":"106.5431500001","Postal":"16661,16662,16663,16664,16665,16666,16667,16668,16669,16660"},{"Code":"3201271","Parent":"3201","Name":"SUKAJAYA","Latitude":"-6.6390994115118","Longitude":"106.46901501569","Postal":"16291,16292,16293,16294,16295,16296,16297,16298,16299,16661"},{"Code":"3201280","Parent":"3201","Name":"JASINGA","Latitude":"-6.4678800000088","Longitude":"106.45802758064","Postal":"16671,16672,16673,16674,16675,16676,16677,16678,16679,16670"},{"Code":"3201290","Parent":"3201","Name":"TENJO","Latitude":"-6.3728850389981","Longitude":"106.48687645446","Postal":"16371,16372,16373,16374,16375,16376,16377,16378,16379,16370"},{"Code":"3201300","Parent":"3201","Name":"PARUNG PANJANG","Latitude":"-6.3731789189989","Longitude":"106.55457999998","Postal":"16361,16362,16363,16364,16365,16366,16367,16368,16369,16360"}]