[{"Code":"3203010","Parent":"3203","Name":"AGRABINTA","Latitude":"-7.3815042070012","Longitude":"106.88592433002","Postal":"43273,43275,43276,43274"},{"Code":"3203011","Parent":"3203","Name":"LELES","Latitude":"-7.3400799999804","Longitude":"107.01755499972","Postal":"43278,43276,43277,43274,43273"},{"Code":"3203020","Parent":"3203","Name":"SINDANGBARANG","Latitude":"-7.4247185615089","Longitude":"107.10266581813","Postal":"43276,43279,43272"},{"Code":"3203030","Parent":"3203","Name":"CIDAUN","Latitude":"-7.3789960289969","Longitude":"107.34738524546","Postal":"43273,43275,43276"},{"Code":"3203040","Parent":"3203","Name":"NARINGGUL","Latitude":"-7.3439871344969","Longitude":"107.32071999995","Postal":"43273,43276,43277,43274"},{"Code":"3203050","Parent":"3203","Name":"CIBINONG","Latitude":"-7.3225099999953","Longitude":"107.17726999993","Postal":"43271,43279"},{"Code":"3203051","Parent":"3203","Name":"CIKADU","Latitude":"-7.3142825380016","Longitude":"107.26409482752","Postal":"43273,43275,43276,43277,43274,43272,43286"},{"Code":"3203060","Parent":"3203","Name":"TANGGEUNG","Latitude":"-7.2546950000112","Longitude":"107.12675500017","Postal":"43263,43267"},{"Code":"3203061","Parent":"3203","Name":"PASIRKUDA","Latitude":"-7.2113719125007","Longitude":"107.22771785552","Postal":"43271,43279,43272,43266,43267"},{"Code":"3203070","Parent":"3203","Name":"KADUPANDAK","Latitude":"-7.2109107430042","Longitude":"107.01992483506","Postal":"43262,43268,43264"},{"Code":"3203071","Parent":"3203","Name":"CIJATI","Latitude":"-7.2882649999887","Longitude":"107.01662218883","Postal":"43262,43269,43266,43284"},{"Code":"3203080","Parent":"3203","Name":"TAKOKAK","Latitude":"-7.114974101989","Longitude":"106.99032075683","Postal":"43265"},{"Code":"3203090","Parent":"3203","Name":"SUKANAGARA","Latitude":"-7.1033855185053","Longitude":"107.08990000008","Postal":"43268,43264"},{"Code":"3203100","Parent":"3203","Name":"PAGELARAN","Latitude":"-7.1601890855029","Longitude":"107.18601965405","Postal":"43262,43269,43266"},{"Code":"3203110","Parent":"3203","Name":"CAMPAKA","Latitude":"-7.0032249999949","Longitude":"107.11398329742","Postal":"43263,43267"},{"Code":"3203111","Parent":"3203","Name":"CAMPAKAMULYA","Latitude":"-7.0719200000147","Longitude":"107.21720525272","Postal":"43278,43277,43269"},{"Code":"3203120","Parent":"3203","Name":"CIBEBER","Latitude":"-6.9408091299994","Longitude":"107.13307856549","Postal":"43262,43269,43268,43266"},{"Code":"3203130","Parent":"3203","Name":"WARUNGKONDANG","Latitude":"-6.8567518120052","Longitude":"107.05498249509","Postal":"43261,43260"},{"Code":"3203131","Parent":"3203","Name":"GEKBRONG","Latitude":"-6.8594996605307","Longitude":"107.04202745998","Postal":"43283,43287,43261"},{"Code":"3203140","Parent":"3203","Name":"CILAKU","Latitude":"-6.8693181910243","Longitude":"107.14534322237","Postal":"43285,43282,43281"},{"Code":"3203150","Parent":"3203","Name":"SUKALUYU","Latitude":"-6.8252369259896","Longitude":"107.22004435634","Postal":"43283,43281,43284,43287"},{"Code":"3203160","Parent":"3203","Name":"BOJONGPICUNG","Latitude":"-6.8810678425022","Longitude":"107.25908479853","Postal":"43283,43287,43281,43284"},{"Code":"3203161","Parent":"3203","Name":"HAURWANGI","Latitude":"-6.8449881729487","Longitude":"107.31621365569","Postal":"43286,43280"},{"Code":"3203170","Parent":"3203","Name":"CIRANJANG","Latitude":"-6.810746876022","Longitude":"107.26749636435","Postal":"43285,43282"},{"Code":"3203180","Parent":"3203","Name":"MANDE","Latitude":"-6.7565609100035","Longitude":"107.18555121256","Postal":"43291,43292"},{"Code":"3203190","Parent":"3203","Name":"KARANGTENGAH","Latitude":"-6.8040911095139","Longitude":"107.19940013072","Postal":"43283,43285,43281,43284"},{"Code":"3203200","Parent":"3203","Name":"CIANJUR","Latitude":"-6.8144759265442","Longitude":"107.12468374119","Postal":"43211,43212,43213,43214,43215,43216,43217,43218,43219"},{"Code":"3203210","Parent":"3203","Name":"CUGENANG","Latitude":"-6.8055350000273","Longitude":"107.05417880993","Postal":"43252"},{"Code":"3203220","Parent":"3203","Name":"PACET","Latitude":"-6.7392959380162","Longitude":"107.02955668225","Postal":"43253,43281"},{"Code":"3203221","Parent":"3203","Name":"CIPANAS","Latitude":"-6.7215450204733","Longitude":"107.01445405357","Postal":"43255,43253"},{"Code":"3203230","Parent":"3203","Name":"SUKARESMI","Latitude":"-6.7160667165103","Longitude":"107.10103064367","Postal":"43254"},{"Code":"3203240","Parent":"3203","Name":"CIKALONGKULON","Latitude":"-6.6714277284828","Longitude":"107.21269106973","Postal":"43291,43292"}]