[{"Code":"3206010","Parent":"3206","Name":"CIPATUJAH","Latitude":"-7.7008838384973","Longitude":"108.02238099996","Postal":"46489,46187"},{"Code":"3206020","Parent":"3206","Name":"KARANGNUNGGAL","Latitude":"-7.6859815000078","Longitude":"108.15738350011","Postal":"46486,46186"},{"Code":"3206030","Parent":"3206","Name":"CIKALONG","Latitude":"-7.7447781010051","Longitude":"108.24075899057","Postal":"46495,46497,46195"},{"Code":"3206040","Parent":"3206","Name":"PANCATENGAH","Latitude":"-7.6850024999894","Longitude":"108.30074799985","Postal":"46491,46497,46494,46194"},{"Code":"3206050","Parent":"3206","Name":"CIKATOMAS","Latitude":"-7.6283370000033","Longitude":"108.26197466505","Postal":"46493,46193"},{"Code":"3206060","Parent":"3206","Name":"CIBALONG","Latitude":"-7.5493170000143","Longitude":"108.19487900021","Postal":"46485,46185"},{"Code":"3206061","Parent":"3206","Name":"PARUNGPONTENG","Latitude":"-7.4905944999844","Longitude":"108.13201349977","Postal":"46476,46189"},{"Code":"3206070","Parent":"3206","Name":"BANTARKALONG","Latitude":"-7.5791164999896","Longitude":"108.07183499986","Postal":"46487,46168,46188"},{"Code":"3206071","Parent":"3206","Name":"BOJONGASIH","Latitude":"-7.5554279999747","Longitude":"108.12678849964","Postal":"46477,46475"},{"Code":"3206072","Parent":"3206","Name":"CULAMEGA","Latitude":"-7.5988339999958","Longitude":"108.03061699994","Postal":"46488,46188"},{"Code":"3206080","Parent":"3206","Name":"BOJONGGAMBIR","Latitude":"-7.573876499999","Longitude":"107.967522636","Postal":"46475,46476"},{"Code":"3206090","Parent":"3206","Name":"SODONGHILIR","Latitude":"-7.4978274999922","Longitude":"108.05380349989","Postal":"46473"},{"Code":"3206100","Parent":"3206","Name":"TARAJU","Latitude":"-7.4442380000156","Longitude":"107.99528617373","Postal":"46474"},{"Code":"3206110","Parent":"3206","Name":"SALAWU","Latitude":"-7.36823000001","Longitude":"107.98669676965","Postal":"46471,46472"},{"Code":"3206111","Parent":"3206","Name":"PUSPAHIANG","Latitude":"-7.423488002511","Longitude":"108.01700412966","Postal":"46472,46471"},{"Code":"3206120","Parent":"3206","Name":"TANJUNGJAYA","Latitude":"-7.4198795000074","Longitude":"108.1325610001","Postal":"46484,46184"},{"Code":"3206130","Parent":"3206","Name":"SUKARAJA","Latitude":"-7.4418193155037","Longitude":"108.15938550005","Postal":"46483,46183"},{"Code":"3206140","Parent":"3206","Name":"SALOPA","Latitude":"-7.4938605000083","Longitude":"108.28418491463","Postal":"46496,46492,46192"},{"Code":"3206141","Parent":"3206","Name":"JATIWARAS","Latitude":"-7.5046613479987","Longitude":"108.23204699999","Postal":"46491,46494,46180"},{"Code":"3206150","Parent":"3206","Name":"CINEAM","Latitude":"-7.4244022940145","Longitude":"108.3659490002","Postal":"46498,46198"},{"Code":"3206151","Parent":"3206","Name":"KARANGJAYA","Latitude":"-7.4559335919926","Longitude":"108.39495049988","Postal":"46499,46199"},{"Code":"3206160","Parent":"3206","Name":"MANONJAYA","Latitude":"-7.3797450000181","Longitude":"108.31827568877","Postal":"46495,46497,46494,46197"},{"Code":"3206161","Parent":"3206","Name":"GUNUNGTANJUNG","Latitude":"-7.4284785000033","Longitude":"108.30312500004","Postal":"46496,46492,46418"},{"Code":"3206190","Parent":"3206","Name":"SINGAPARNA","Latitude":"-7.3475735000066","Longitude":"108.1274642691","Postal":"46411,46412,46413,46414,46415,46416,46417,46418"},{"Code":"3206191","Parent":"3206","Name":"SUKARAME","Latitude":"-7.3727560000075","Longitude":"108.14957600011","Postal":"46461"},{"Code":"3206192","Parent":"3206","Name":"MANGUNREJA","Latitude":"-7.384706000019","Longitude":"108.08978300027","Postal":"46462"},{"Code":"3206200","Parent":"3206","Name":"CIGALONTANG","Latitude":"-7.2954408909923","Longitude":"108.00817472589","Postal":"46463"},{"Code":"3206210","Parent":"3206","Name":"LEUWISARI","Latitude":"-7.3029759999922","Longitude":"108.09474649988","Postal":"46464"},{"Code":"3206211","Parent":"3206","Name":"SARIWANGI","Latitude":"-7.2949884999653","Longitude":"108.06040349949","Postal":"46465"},{"Code":"3206212","Parent":"3206","Name":"PADAKEMBANG","Latitude":"-7.311091499909","Longitude":"108.12167599866","Postal":"46466"},{"Code":"3206221","Parent":"3206","Name":"SUKARATU","Latitude":"-7.2828090000067","Longitude":"108.11992800011","Postal":"46452,46459,46415"},{"Code":"3206230","Parent":"3206","Name":"CISAYONG","Latitude":"-7.2454839999692","Longitude":"108.12862628005","Postal":"46453,46153"},{"Code":"3206231","Parent":"3206","Name":"SUKAHENING","Latitude":"-7.2125160000249","Longitude":"108.11729523637","Postal":"46454,46155"},{"Code":"3206240","Parent":"3206","Name":"RAJAPOLAH","Latitude":"-7.2169313209076","Longitude":"108.18067764613","Postal":"46455,46155,46183"},{"Code":"3206250","Parent":"3206","Name":"JAMANIS","Latitude":"-7.1874675000208","Longitude":"108.16419600033","Postal":"46451,46175"},{"Code":"3206260","Parent":"3206","Name":"CIAWI","Latitude":"-7.1678745000213","Longitude":"108.11422851282","Postal":"46456,46156"},{"Code":"3206261","Parent":"3206","Name":"KADIPATEN","Latitude":"-7.108382499975","Longitude":"108.11527549962","Postal":"46457,46157"},{"Code":"3206270","Parent":"3206","Name":"PAGERAGEUNG","Latitude":"-7.096877147484","Longitude":"108.17467949976","Postal":"46458,46158,46413"},{"Code":"3206271","Parent":"3206","Name":"SUKARESIK","Latitude":"-7.156501499964","Longitude":"108.18281749944","Postal":"46452,46459,46419"}]