[{"Code":"3211010","Parent":"3211","Name":"JATINANGOR","Latitude":"-6.9275318579924","Longitude":"107.77840080138","Postal":"45367,45360"},{"Code":"3211020","Parent":"3211","Name":"CIMANGGUNG","Latitude":"-6.9504302794996","Longitude":"107.86091066949","Postal":"45364"},{"Code":"3211030","Parent":"3211","Name":"TANJUNGSARI","Latitude":"-6.8686812830092","Longitude":"107.79354664065","Postal":"45362"},{"Code":"3211031","Parent":"3211","Name":"SUKASARI","Latitude":"-6.8628204079999","Longitude":"107.7704425305","Postal":"45366"},{"Code":"3211032","Parent":"3211","Name":"PAMULIHAN","Latitude":"-6.8908889724872","Longitude":"107.8435424133","Postal":"45365"},{"Code":"3211040","Parent":"3211","Name":"RANCAKALONG","Latitude":"-6.8278409594763","Longitude":"107.83400605062","Postal":"45361"},{"Code":"3211050","Parent":"3211","Name":"SUMEDANG SELATAN","Latitude":"-6.898409176505","Longitude":"107.91617976109","Postal":"45311,45312,45313,45314,45315,45316,45317,45318,45319"},{"Code":"3211060","Parent":"3211","Name":"SUMEDANG UTARA","Latitude":"-6.8354994384803","Longitude":"107.90685749969","Postal":"45321,45322,45323,45324,45325,45326,45327,45328,45329"},{"Code":"3211061","Parent":"3211","Name":"GANEAS","Latitude":"-6.868550000068","Longitude":"107.96808000107","Postal":"45356"},{"Code":"3211070","Parent":"3211","Name":"SITURAJA","Latitude":"-6.8671280265008","Longitude":"108.02365100002","Postal":"45371"},{"Code":"3211071","Parent":"3211","Name":"CISITU","Latitude":"-6.8805199999895","Longitude":"108.04126328533","Postal":"45377,45363"},{"Code":"3211080","Parent":"3211","Name":"DARMARAJA","Latitude":"-6.9088191075014","Longitude":"108.05055674803","Postal":"45372"},{"Code":"3211090","Parent":"3211","Name":"CIBUGEL","Latitude":"-6.966462933984","Longitude":"108.02706762875","Postal":"45375"},{"Code":"3211100","Parent":"3211","Name":"WADO","Latitude":"-6.975079170497","Longitude":"108.11011240596","Postal":"45373"},{"Code":"3211101","Parent":"3211","Name":"JATINUNGGAL","Latitude":"-6.9331856200104","Longitude":"108.15732645267","Postal":"45376"},{"Code":"3211111","Parent":"3211","Name":"JATIGEDE","Latitude":"-6.8682216474838","Longitude":"108.13310499974","Postal":"45374,45377"},{"Code":"3211120","Parent":"3211","Name":"TOMO","Latitude":"-6.7938700319853","Longitude":"108.10993426227","Postal":"45382"},{"Code":"3211130","Parent":"3211","Name":"UJUNG JAYA","Latitude":"-6.6981839990069","Longitude":"108.09533432211","Postal":"45383"},{"Code":"3211140","Parent":"3211","Name":"CONGGEANG","Latitude":"-6.7274873595098","Longitude":"108.02072555565","Postal":"45391"},{"Code":"3211150","Parent":"3211","Name":"PASEH","Latitude":"-6.7992453049976","Longitude":"108.01301858595","Postal":"45381"},{"Code":"3211160","Parent":"3211","Name":"CIMALAKA","Latitude":"-6.7989799999846","Longitude":"107.94625110176","Postal":"45353"},{"Code":"3211161","Parent":"3211","Name":"CISARUA","Latitude":"-6.8324000000253","Longitude":"107.9739952609","Postal":"45357,45355"},{"Code":"3211170","Parent":"3211","Name":"TANJUNGKERTA","Latitude":"-6.7650662499889","Longitude":"107.90167249981","Postal":"45354"},{"Code":"3211171","Parent":"3211","Name":"TANJUNGMEDAR","Latitude":"-6.7403646419988","Longitude":"107.86149463148","Postal":"45355,45352"},{"Code":"3211180","Parent":"3211","Name":"BUAHDUA","Latitude":"-6.6828114284872","Longitude":"107.9509918778","Postal":"45392"},{"Code":"3211181","Parent":"3211","Name":"SURIAN","Latitude":"-6.6441816020061","Longitude":"107.8630584826","Postal":"45393"}]