[{"Code":"3212010","Parent":"3212","Name":"HAURGEULIS","Latitude":"-6.4456950000098","Longitude":"107.93670926067","Postal":"45264,45266"},{"Code":"3212011","Parent":"3212","Name":"GANTAR","Latitude":"-6.5527297039923","Longitude":"107.93406311287","Postal":"45266,45264"},{"Code":"3212020","Parent":"3212","Name":"KROYA","Latitude":"-6.5003099999966","Longitude":"108.04141999994","Postal":"45265"},{"Code":"3212030","Parent":"3212","Name":"GABUSWETAN","Latitude":"-6.419254999995","Longitude":"108.06703001092","Postal":"45263"},{"Code":"3212040","Parent":"3212","Name":"CIKEDUNG","Latitude":"-6.5289125050083","Longitude":"108.17119500013","Postal":"45262"},{"Code":"3212041","Parent":"3212","Name":"TERISI","Latitude":"-6.5536603945023","Longitude":"108.07808000004","Postal":"45267,45260"},{"Code":"3212050","Parent":"3212","Name":"LELEA","Latitude":"-6.4814599999887","Longitude":"108.22610499931","Postal":"45261"},{"Code":"3212060","Parent":"3212","Name":"BANGODUA","Latitude":"-6.5164450000212","Longitude":"108.28514499986","Postal":"45272"},{"Code":"3212061","Parent":"3212","Name":"TUKDANA","Latitude":"-6.5723093065214","Longitude":"108.27355764035","Postal":"45276,45270"},{"Code":"3212070","Parent":"3212","Name":"WIDASARI","Latitude":"-6.4623149999619","Longitude":"108.27056999936","Postal":"45271"},{"Code":"3212080","Parent":"3212","Name":"KERTASEMAYA","Latitude":"-6.5204526130058","Longitude":"108.3626400001","Postal":"45274"},{"Code":"3212081","Parent":"3212","Name":"SUKAGUMIWANG","Latitude":"-6.5826229520445","Longitude":"108.32422505223","Postal":"45275"},{"Code":"3212090","Parent":"3212","Name":"KRANGKENG","Latitude":"-6.517049343007","Longitude":"108.48522477413","Postal":"45284"},{"Code":"3212100","Parent":"3212","Name":"KARANGAMPEL","Latitude":"-6.4706799999869","Longitude":"108.44964305579","Postal":"45283"},{"Code":"3212101","Parent":"3212","Name":"KEDOKAN BUNDER","Latitude":"-6.5041797754959","Longitude":"108.41916499993","Postal":"45286,45280"},{"Code":"3212110","Parent":"3212","Name":"JUNTINYUAT","Latitude":"-6.4324149999925","Longitude":"108.42279814988","Postal":"45282"},{"Code":"3212120","Parent":"3212","Name":"SLIYEG","Latitude":"-6.4457199999773","Longitude":"108.35045999962","Postal":"45281"},{"Code":"3212130","Parent":"3212","Name":"JATIBARANG","Latitude":"-6.4497300000193","Longitude":"108.31718500031","Postal":"45273"},{"Code":"3212140","Parent":"3212","Name":"BALONGAN","Latitude":"-6.3840694534537","Longitude":"108.37561999922","Postal":"45241,45242,45243,45244,45245,45246,45247,45248,45217,45285"},{"Code":"3212150","Parent":"3212","Name":"INDRAMAYU","Latitude":"-6.3465649999997","Longitude":"108.33538599449","Postal":"45211,45212,45213,45214,45215,45216,45218,45219"},{"Code":"3212160","Parent":"3212","Name":"SINDANG","Latitude":"-6.3389131134742","Longitude":"108.29167543607","Postal":"45221,45222,45223,45224,45225,45226,45227"},{"Code":"3212161","Parent":"3212","Name":"CANTIGI","Latitude":"-6.292104999996","Longitude":"108.20855384493","Postal":"45251,45253,45258"},{"Code":"3212162","Parent":"3212","Name":"PASEKAN","Latitude":"-6.2754607195196","Longitude":"108.30297170784","Postal":"45231,45232,45233,45234,45235,45236,45213,45229"},{"Code":"3212170","Parent":"3212","Name":"LOHBENER","Latitude":"-6.4005800000187","Longitude":"108.25128634481","Postal":"45252"},{"Code":"3212171","Parent":"3212","Name":"ARAHAN","Latitude":"-6.3635200000118","Longitude":"108.2461900002","Postal":"45259,45267"},{"Code":"3212180","Parent":"3212","Name":"LOSARANG","Latitude":"-6.3876071935103","Longitude":"108.16820500018","Postal":"45253"},{"Code":"3212190","Parent":"3212","Name":"KANDANGHAUR","Latitude":"-6.3586714955084","Longitude":"108.08937000014","Postal":"45254,45213"},{"Code":"3212200","Parent":"3212","Name":"BONGAS","Latitude":"-6.3824624295163","Longitude":"108.01663000028","Postal":"45255"},{"Code":"3212210","Parent":"3212","Name":"ANJATAN","Latitude":"-6.3709599999965","Longitude":"107.94161500595","Postal":"45256"},{"Code":"3212220","Parent":"3212","Name":"SUKRA","Latitude":"-6.3014799999824","Longitude":"107.94839239521","Postal":"45257,45259"},{"Code":"3212221","Parent":"3212","Name":"PATROL","Latitude":"-6.3198960915172","Longitude":"108.0006650003","Postal":"45258,45257"}]