[{"Code":"3215010","Parent":"3215","Name":"PANGKALAN","Latitude":"-6.4851732255042","Longitude":"107.23692906207","Postal":"41362"},{"Code":"3215011","Parent":"3215","Name":"TEGALWARU","Latitude":"-6.5212247454979","Longitude":"107.24291500147","Postal":"41364"},{"Code":"3215020","Parent":"3215","Name":"CIAMPEL","Latitude":"-6.4283514610036","Longitude":"107.33279852757","Postal":"41363"},{"Code":"3215031","Parent":"3215","Name":"TELUKJAMBE TIMUR","Latitude":"-6.3428138215012","Longitude":"107.29368000001","Postal":"41331,41332,41333,41334,41335,41336,41337,41338,41339,41360"},{"Code":"3215032","Parent":"3215","Name":"TELUKJAMBE BARAT","Latitude":"-6.3504862004958","Longitude":"107.24108918142","Postal":"41341,41342,41343,41344,41345,41346,41347,41348,41349,41361"},{"Code":"3215040","Parent":"3215","Name":"KLARI","Latitude":"-6.3959084334956","Longitude":"107.37905684293","Postal":"41371"},{"Code":"3215050","Parent":"3215","Name":"CIKAMPEK","Latitude":"-6.4163914490299","Longitude":"107.43494500051","Postal":"41373"},{"Code":"3215051","Parent":"3215","Name":"PURWASARI","Latitude":"-6.3720939839899","Longitude":"107.41121499983","Postal":"41376,41377"},{"Code":"3215060","Parent":"3215","Name":"TIRTAMULYA","Latitude":"-6.33644499999","Longitude":"107.46077291483","Postal":"41372"},{"Code":"3215070","Parent":"3215","Name":"JATISARI","Latitude":"-6.360784718499","Longitude":"107.52540527099","Postal":"41374,41375"},{"Code":"3215071","Parent":"3215","Name":"BANYUSARI","Latitude":"-6.3082500540045","Longitude":"107.53447680858","Postal":"41375,41374"},{"Code":"3215072","Parent":"3215","Name":"KOTABARU","Latitude":"-6.396470434974","Longitude":"107.49104119607","Postal":"41377,41376"},{"Code":"3215081","Parent":"3215","Name":"CILAMAYA WETAN","Latitude":"-6.2332949259981","Longitude":"107.58532886247","Postal":"41384,41386"},{"Code":"3215082","Parent":"3215","Name":"CILAMAYA KULON","Latitude":"-6.2247800000205","Longitude":"107.51427000034","Postal":"41386,41384"},{"Code":"3215090","Parent":"3215","Name":"LEMAHABANG","Latitude":"-6.2855900000029","Longitude":"107.45121500004","Postal":"41383"},{"Code":"3215100","Parent":"3215","Name":"TELAGASARI","Latitude":"-6.2684150000025","Longitude":"107.41553000005","Postal":"41381"},{"Code":"3215111","Parent":"3215","Name":"MAJALAYA","Latitude":"-6.3005899999979","Longitude":"107.37340499997","Postal":"41388,41370"},{"Code":"3215112","Parent":"3215","Name":"KARAWANG TIMUR","Latitude":"-6.2993899999874","Longitude":"107.33112957528","Postal":"41321,41322,41323,41324,41325,41326,41327,41328,41313,41314"},{"Code":"3215113","Parent":"3215","Name":"KARAWANG BARAT","Latitude":"-6.272012363523","Longitude":"107.2962864309","Postal":"41311,41312,41313,41315,41316,41317,41318,41319"},{"Code":"3215120","Parent":"3215","Name":"RAWAMERTA","Latitude":"-6.2262599999998","Longitude":"107.34513","Postal":"41382"},{"Code":"3215130","Parent":"3215","Name":"TEMPURAN","Latitude":"-6.1894750000121","Longitude":"107.44859000021","Postal":"41385"},{"Code":"3215140","Parent":"3215","Name":"KUTAWALUYA","Latitude":"-6.1738099999885","Longitude":"107.34253999981","Postal":"41358"},{"Code":"3215150","Parent":"3215","Name":"RENGASDENGKLOK","Latitude":"-6.1709849999972","Longitude":"107.30226717195","Postal":"41352"},{"Code":"3215151","Parent":"3215","Name":"JAYAKERTA","Latitude":"-6.1051900000026","Longitude":"107.29270499255","Postal":"41359,41351"},{"Code":"3215160","Parent":"3215","Name":"PEDES","Latitude":"-6.0829450000056","Longitude":"107.3698461056","Postal":"41353"},{"Code":"3215161","Parent":"3215","Name":"CILEBAR","Latitude":"-6.1264250000228","Longitude":"107.4086500004","Postal":"41387,41350"},{"Code":"3215170","Parent":"3215","Name":"CIBUAYA","Latitude":"-6.0292650000031","Longitude":"107.31322500006","Postal":"41356"},{"Code":"3215180","Parent":"3215","Name":"TIRTAJAYA","Latitude":"-6.0403399999811","Longitude":"107.24860999966","Postal":"41357"},{"Code":"3215190","Parent":"3215","Name":"BATUJAYA","Latitude":"-6.0480498469961","Longitude":"107.19843545844","Postal":"41354"},{"Code":"3215200","Parent":"3215","Name":"PAKISJAYA","Latitude":"-6.0036123164969","Longitude":"107.12739967444","Postal":"41355"}]