[{"Code":"3274010","Parent":"3274","Name":"HARJAMUKTI","Latitude":"-6.7649668355344","Longitude":"108.55108585656","Postal":"45141,45142,45143,45144,45145"},{"Code":"3274020","Parent":"3274","Name":"LEMAHWUNGKUK","Latitude":"-6.728380376919","Longitude":"108.57873210718","Postal":"45111,45112,45113,45114"},{"Code":"3274030","Parent":"3274","Name":"PEKALIPAN","Latitude":"-6.723575478543","Longitude":"108.56388281228","Postal":"45115,45116,45117,45118"},{"Code":"3274040","Parent":"3274","Name":"KESAMBI","Latitude":"-6.7304533513421","Longitude":"108.54156009195","Postal":"45131,45132,45133,45134,45135"},{"Code":"3274050","Parent":"3274","Name":"KEJAKSAN","Latitude":"-6.7036045428129","Longitude":"108.55529821608","Postal":"45121,45122,45123,45124"}]