[{"Code":"3303010","Parent":"3303","Name":"KEMANGKON","Latitude":"-7.4546698429939","Longitude":"109.37023927541","Postal":"53381"},{"Code":"3303020","Parent":"3303","Name":"BUKATEJA","Latitude":"-7.4402611525332","Longitude":"109.45342957948","Postal":"53382"},{"Code":"3303030","Parent":"3303","Name":"KEJOBONG","Latitude":"-7.3983449999846","Longitude":"109.48326233077","Postal":"53392,53314"},{"Code":"3303040","Parent":"3303","Name":"PENGADEGAN","Latitude":"-7.3687600000353","Longitude":"109.49185601153","Postal":"53393"},{"Code":"3303050","Parent":"3303","Name":"KALIGONDANG","Latitude":"-7.37839000001","Longitude":"109.41573000015","Postal":"53391,53331"},{"Code":"3303060","Parent":"3303","Name":"PURBALINGGA","Latitude":"-7.4005100000763","Longitude":"109.37382000112","Postal":"53311,53312,53313,53314,53315,53316,53317,53318,53319"},{"Code":"3303070","Parent":"3303","Name":"KALIMANAH","Latitude":"-7.4176940279373","Longitude":"109.34263999907","Postal":"53371,53321"},{"Code":"3303080","Parent":"3303","Name":"PADAMARA","Latitude":"-7.3833007099891","Longitude":"109.32257736683","Postal":"53372"},{"Code":"3303090","Parent":"3303","Name":"KUTASARI","Latitude":"-7.3138958460017","Longitude":"109.29305340953","Postal":"53361"},{"Code":"3303100","Parent":"3303","Name":"BOJONGSARI","Latitude":"-7.3061981599835","Longitude":"109.30583050125","Postal":"53362"},{"Code":"3303110","Parent":"3303","Name":"MREBET","Latitude":"-7.3042750000032","Longitude":"109.34629000005","Postal":"53352"},{"Code":"3303120","Parent":"3303","Name":"BOBOTSARI","Latitude":"-7.2821549999855","Longitude":"109.36362499978","Postal":"53353"},{"Code":"3303130","Parent":"3303","Name":"KARANGREJA","Latitude":"-7.238853570027","Longitude":"109.29737500041","Postal":"53357,53358"},{"Code":"3303131","Parent":"3303","Name":"KARANGJAMBU","Latitude":"-7.20784498301","Longitude":"109.40737377915","Postal":"53359,53357"},{"Code":"3303140","Parent":"3303","Name":"KARANGANYAR","Latitude":"-7.3011649999809","Longitude":"109.40719499972","Postal":"53354"},{"Code":"3303141","Parent":"3303","Name":"KERTANEGARA","Latitude":"-7.2963400000295","Longitude":"109.42753000043","Postal":"53358,53351"},{"Code":"3303150","Parent":"3303","Name":"KARANGMONCOL","Latitude":"-7.2587899999868","Longitude":"109.46529999981","Postal":"53355"},{"Code":"3303160","Parent":"3303","Name":"REMBANG","Latitude":"-7.2906252979985","Longitude":"109.53182421548","Postal":"53356"}]