[{"Code":"3304010","Parent":"3304","Name":"SUSUKAN","Latitude":"-7.5039903575192","Longitude":"109.40640985128","Postal":"53475"},{"Code":"3304020","Parent":"3304","Name":"PURWAREJA KLAMPOK","Latitude":"-7.485414939446","Longitude":"109.44640423372","Postal":"53474"},{"Code":"3304030","Parent":"3304","Name":"MANDIRAJA","Latitude":"-7.4801916165002","Longitude":"109.499035","Postal":"53473"},{"Code":"3304040","Parent":"3304","Name":"PURWANEGARA","Latitude":"-7.4643953680248","Longitude":"109.56837560836","Postal":"53472"},{"Code":"3304050","Parent":"3304","Name":"BAWANG","Latitude":"-7.4394472880003","Longitude":"109.630167569","Postal":"53471"},{"Code":"3304060","Parent":"3304","Name":"BANJARNEGARA","Latitude":"-7.4152250660405","Longitude":"109.7117450006","Postal":"53411,53412,53413,53414,53415,53416,53417,53418,53419"},{"Code":"3304061","Parent":"3304","Name":"PAGEDONGAN","Latitude":"-7.4570292269975","Longitude":"109.69204878596","Postal":"53451,53418"},{"Code":"3304070","Parent":"3304","Name":"SIGALUH","Latitude":"-7.4183667755312","Longitude":"109.77917627996","Postal":"53481"},{"Code":"3304080","Parent":"3304","Name":"MADUKARA","Latitude":"-7.358269999988","Longitude":"109.72850402332","Postal":"53482"},{"Code":"3304090","Parent":"3304","Name":"BANJARMANGU","Latitude":"-7.3406900000041","Longitude":"109.68467000005","Postal":"53452,53458,53454"},{"Code":"3304100","Parent":"3304","Name":"WANADADI","Latitude":"-7.3647699999919","Longitude":"109.62978499989","Postal":"53461"},{"Code":"3304110","Parent":"3304","Name":"RAKIT","Latitude":"-7.4183950000111","Longitude":"109.54944414266","Postal":"53463"},{"Code":"3304120","Parent":"3304","Name":"PUNGGELAN","Latitude":"-7.3310750000049","Longitude":"109.58771145958","Postal":"53462"},{"Code":"3304130","Parent":"3304","Name":"KARANGKOBAR","Latitude":"-7.2845949999974","Longitude":"109.70721499996","Postal":"53453"},{"Code":"3304140","Parent":"3304","Name":"PAGENTAN","Latitude":"-7.312939945006","Longitude":"109.78335251709","Postal":"53455"},{"Code":"3304150","Parent":"3304","Name":"PEJAWARAN","Latitude":"-7.2408600000216","Longitude":"109.81740000034","Postal":"53452,53454"},{"Code":"3304160","Parent":"3304","Name":"BATUR","Latitude":"-7.2087450890159","Longitude":"109.85426730225","Postal":"53456,53457"},{"Code":"3304170","Parent":"3304","Name":"WANAYASA","Latitude":"-7.2479422415111","Longitude":"109.76198500017","Postal":"53456,53457"},{"Code":"3304180","Parent":"3304","Name":"KALIBENING","Latitude":"-7.2310121784957","Longitude":"109.66161481993","Postal":"53452,53458"},{"Code":"3304181","Parent":"3304","Name":"PANDANARUM","Latitude":"-7.2533162680091","Longitude":"109.58390975215","Postal":"53464,53459"}]