[{"Code":"3309010","Parent":"3309","Name":"SELO","Latitude":"-7.4977533495112","Longitude":"110.44955414566","Postal":"57363"},{"Code":"3309020","Parent":"3309","Name":"AMPEL","Latitude":"-7.4503810315098","Longitude":"110.52154444165","Postal":"57352,57316"},{"Code":"3309030","Parent":"3309","Name":"CEPOGO","Latitude":"-7.5058709990021","Longitude":"110.51080543853","Postal":"57362"},{"Code":"3309040","Parent":"3309","Name":"MUSUK","Latitude":"-7.5818312574933","Longitude":"110.5195987939","Postal":"57361,57331"},{"Code":"3309050","Parent":"3309","Name":"BOYOLALI","Latitude":"-7.5179649615747","Longitude":"110.59163727609","Postal":"57311,57312,57313,57314,57315,57316,57317,57318,57319"},{"Code":"3309060","Parent":"3309","Name":"MOJOSONGO","Latitude":"-7.5399248049909","Longitude":"110.60894183287","Postal":"57371,57321,57323"},{"Code":"3309070","Parent":"3309","Name":"TERAS","Latitude":"-7.539458803484","Longitude":"110.65182667277","Postal":"57372"},{"Code":"3309080","Parent":"3309","Name":"SAWIT","Latitude":"-7.5735292471328","Longitude":"110.68548158544","Postal":"57374"},{"Code":"3309090","Parent":"3309","Name":"BANYUDONO","Latitude":"-7.536116102032","Longitude":"110.69625530598","Postal":"57373"},{"Code":"3309100","Parent":"3309","Name":"SAMBI","Latitude":"-7.4795900000184","Longitude":"110.67972333778","Postal":"57376"},{"Code":"3309110","Parent":"3309","Name":"NGEMPLAK","Latitude":"-7.5079897404949","Longitude":"110.76323257692","Postal":"57375"},{"Code":"3309120","Parent":"3309","Name":"NOGOSARI","Latitude":"-7.4586833575211","Longitude":"110.75659139731","Postal":"57378"},{"Code":"3309130","Parent":"3309","Name":"SIMO","Latitude":"-7.4320682784838","Longitude":"110.68043461826","Postal":"57377"},{"Code":"3309140","Parent":"3309","Name":"KARANGGEDE","Latitude":"-7.3685945634664","Longitude":"110.65710856099","Postal":"57381,57311"},{"Code":"3309150","Parent":"3309","Name":"KLEGO","Latitude":"-7.3670082994833","Longitude":"110.71414306775","Postal":"57385"},{"Code":"3309160","Parent":"3309","Name":"ANDONG","Latitude":"-7.3749896669973","Longitude":"110.76691288896","Postal":"57384"},{"Code":"3309170","Parent":"3309","Name":"KEMUSU","Latitude":"-7.2817793794984","Longitude":"110.75878402148","Postal":"57383"},{"Code":"3309180","Parent":"3309","Name":"WONOSEGORO","Latitude":"-7.2817287219888","Longitude":"110.65371130183","Postal":"57382"},{"Code":"3309190","Parent":"3309","Name":"JUWANGI","Latitude":"-7.2076417049875","Longitude":"110.77399195631","Postal":"57391"}]