[{"Code":"3310010","Parent":"3310","Name":"PRAMBANAN","Latitude":"-7.7488199999345","Longitude":"110.51053532007","Postal":"57454"},{"Code":"3310020","Parent":"3310","Name":"GANTIWARNO","Latitude":"-7.7771029549819","Longitude":"110.56693908725","Postal":"57455"},{"Code":"3310030","Parent":"3310","Name":"WEDI","Latitude":"-7.770750115507","Longitude":"110.6016700001","Postal":"57461"},{"Code":"3310040","Parent":"3310","Name":"BAYAT","Latitude":"-7.7729109830291","Longitude":"110.65521045592","Postal":"57462,57465"},{"Code":"3310050","Parent":"3310","Name":"CAWAS","Latitude":"-7.7620693089975","Longitude":"110.71501371696","Postal":"57463,57465"},{"Code":"3310060","Parent":"3310","Name":"TRUCUK","Latitude":"-7.7243428535607","Longitude":"110.66883519888","Postal":"57467,57473"},{"Code":"3310070","Parent":"3310","Name":"KALIKOTES","Latitude":"-7.72744485846","Longitude":"110.61985864443","Postal":"57451"},{"Code":"3310080","Parent":"3310","Name":"KEBONARUM","Latitude":"-7.7006014230133","Longitude":"110.56052068619","Postal":"57486"},{"Code":"3310090","Parent":"3310","Name":"JOGONALAN","Latitude":"-7.7263376124687","Longitude":"110.55072347705","Postal":"57452"},{"Code":"3310100","Parent":"3310","Name":"MANISRENGGO","Latitude":"-7.69039999992","Longitude":"110.49860848334","Postal":"57485"},{"Code":"3310110","Parent":"3310","Name":"KARANGNONGKO","Latitude":"-7.6698577480266","Longitude":"110.54498500538","Postal":"57483"},{"Code":"3310120","Parent":"3310","Name":"NGAWEN","Latitude":"-7.6685336820055","Longitude":"110.60710923807","Postal":"57466"},{"Code":"3310130","Parent":"3310","Name":"CEPER","Latitude":"-7.6781507575812","Longitude":"110.66859278718","Postal":"57462,57463,57465"},{"Code":"3310140","Parent":"3310","Name":"PEDAN","Latitude":"-7.6968673976057","Longitude":"110.70753285701","Postal":"57468"},{"Code":"3310150","Parent":"3310","Name":"KARANGDOWO","Latitude":"-7.7076111204524","Longitude":"110.74328831881","Postal":"57464"},{"Code":"3310160","Parent":"3310","Name":"JUWIRING","Latitude":"-7.6563788094542","Longitude":"110.73506149234","Postal":"57471,57472"},{"Code":"3310170","Parent":"3310","Name":"WONOSARI","Latitude":"-7.6279274745519","Longitude":"110.74502025325","Postal":"57473"},{"Code":"3310180","Parent":"3310","Name":"DELANGGU","Latitude":"-7.6295138629849","Longitude":"110.69249849578","Postal":"57471,57472"},{"Code":"3310190","Parent":"3310","Name":"POLANHARJO","Latitude":"-7.6226630989933","Longitude":"110.66721000091","Postal":"57474"},{"Code":"3310200","Parent":"3310","Name":"KARANGANOM","Latitude":"-7.6420015714551","Longitude":"110.63331754584","Postal":"57475"},{"Code":"3310210","Parent":"3310","Name":"TULUNG","Latitude":"-7.5965007679877","Longitude":"110.60471662382","Postal":"57482"},{"Code":"3310220","Parent":"3310","Name":"JATINOM","Latitude":"-7.6734074959786","Longitude":"110.5783803487","Postal":"57481"},{"Code":"3310230","Parent":"3310","Name":"KEMALANG","Latitude":"-7.6084547909929","Longitude":"110.4904362844","Postal":"57484"},{"Code":"3310710","Parent":"3310","Name":"KLATEN SELATAN","Latitude":"-7.7180507215484","Longitude":"110.59049594972","Postal":"57421,57422,57423,57424,57425,57426,57427"},{"Code":"3310720","Parent":"3310","Name":"KLATEN TENGAH","Latitude":"-7.7157368185689","Longitude":"110.60722789096","Postal":"57411,57412,57413,57414,57415,57416,57417,57418,57419"},{"Code":"3310730","Parent":"3310","Name":"KLATEN UTARA","Latitude":"-7.6904447285287","Longitude":"110.61677506542","Postal":"57431,57432,57433,57434,57435,57436,57437,57438"}]