[{"Code":"3311010","Parent":"3311","Name":"WERU","Latitude":"-7.7863390559651","Longitude":"110.7568401255","Postal":"57562"},{"Code":"3311020","Parent":"3311","Name":"BULU","Latitude":"-7.7706838485025","Longitude":"110.82608671154","Postal":"57563"},{"Code":"3311030","Parent":"3311","Name":"TAWANGSARI","Latitude":"-7.7271590525079","Longitude":"110.78722986062","Postal":"57561"},{"Code":"3311040","Parent":"3311","Name":"SUKOHARJO","Latitude":"-7.6747294164793","Longitude":"110.8265594637","Postal":"57511,57512,57513,57514,57515,57516,57517,57518,57519,57551"},{"Code":"3311050","Parent":"3311","Name":"NGUTER","Latitude":"-7.7424990824758","Longitude":"110.87939841916","Postal":"57571"},{"Code":"3311060","Parent":"3311","Name":"BENDOSARI","Latitude":"-7.6824426094945","Longitude":"110.89118879993","Postal":"57572,57521,57528"},{"Code":"3311070","Parent":"3311","Name":"POLOKARTO","Latitude":"-7.6461407935077","Longitude":"110.89511506461","Postal":"57555,57513"},{"Code":"3311080","Parent":"3311","Name":"MOJOLABAN","Latitude":"-7.5964511045095","Longitude":"110.87163691164","Postal":"57554"},{"Code":"3311090","Parent":"3311","Name":"GROGOL","Latitude":"-7.6110176139674","Longitude":"110.81810629553","Postal":"57552"},{"Code":"3311100","Parent":"3311","Name":"BAKI","Latitude":"-7.6058281369802","Longitude":"110.77634533372","Postal":"57556"},{"Code":"3311110","Parent":"3311","Name":"GATAK","Latitude":"-7.59323590005","Longitude":"110.73605335873","Postal":"57557"},{"Code":"3311120","Parent":"3311","Name":"KARTASURA","Latitude":"-7.5593267989731","Longitude":"110.7478486821","Postal":"57558,57161,57169"}]