[{"Code":"3316010","Parent":"3316","Name":"JATI","Latitude":"-7.2230325884975","Longitude":"111.28771686896","Postal":"58284,58384"},{"Code":"3316020","Parent":"3316","Name":"RANDUBLATUNG","Latitude":"-7.2045549999996","Longitude":"111.39635499999","Postal":"58282,58382"},{"Code":"3316030","Parent":"3316","Name":"KRADENAN","Latitude":"-7.282480428995","Longitude":"111.43727311543","Postal":"58283,58383"},{"Code":"3316040","Parent":"3316","Name":"KEDUNGTUBAN","Latitude":"-7.1694185690051","Longitude":"111.50012000008","Postal":"58381"},{"Code":"3316050","Parent":"3316","Name":"CEPU","Latitude":"-7.167164178004","Longitude":"111.56945985857","Postal":"58275,58311,58315"},{"Code":"3316060","Parent":"3316","Name":"SAMBONG","Latitude":"-7.0919899999854","Longitude":"111.54886257577","Postal":"58271,58371"},{"Code":"3316070","Parent":"3316","Name":"JIKEN","Latitude":"-7.0065899999911","Longitude":"111.53882103236","Postal":"58272,58372"},{"Code":"3316080","Parent":"3316","Name":"BOGOREJO","Latitude":"-6.9280998805083","Longitude":"111.52568909913","Postal":"58262"},{"Code":"3316090","Parent":"3316","Name":"JEPON","Latitude":"-6.9978727724876","Longitude":"111.45396499979","Postal":"58261"},{"Code":"3316100","Parent":"3316","Name":"KOTA BLORA","Latitude":"-6.9610894965103","Longitude":"111.43694480667","Postal":"58211,58212,58213,58214,58215,58216,58217,58218,58219"},{"Code":"3316110","Parent":"3316","Name":"BANJAREJO","Latitude":"-7.0496177070082","Longitude":"111.37453000013","Postal":"58253,58255,58256"},{"Code":"3316120","Parent":"3316","Name":"TUNJUNGAN","Latitude":"-6.9376714345155","Longitude":"111.38853035775","Postal":"58255,58254,58252"},{"Code":"3316130","Parent":"3316","Name":"JAPAH","Latitude":"-6.9215101609939","Longitude":"111.28950999991","Postal":"58257,58254"},{"Code":"3316140","Parent":"3316","Name":"NGAWEN","Latitude":"-7.0332599999985","Longitude":"111.28696159898","Postal":"58257,58254,58252"},{"Code":"3316150","Parent":"3316","Name":"KUNDURAN","Latitude":"-7.0710800000025","Longitude":"111.25701500005","Postal":"58253,58255,58252"},{"Code":"3316160","Parent":"3316","Name":"TODANAN","Latitude":"-6.9292419429893","Longitude":"111.18197724333","Postal":"58253,58256"}]