[{"Code":"3319010","Parent":"3319","Name":"KALIWUNGU","Latitude":"-6.7905370829778","Longitude":"110.79948599914","Postal":"59361,59332"},{"Code":"3319020","Parent":"3319","Name":"KOTA KUDUS","Latitude":"-6.7997865428885","Longitude":"110.84143085969","Postal":"59311,59312,59313,59314,59315,59316,59317,59318,59319"},{"Code":"3319030","Parent":"3319","Name":"JATI","Latitude":"-6.830344416036","Longitude":"110.84235185408","Postal":"59341,59342,59343,59344,59345,59346,59347,59348,59349"},{"Code":"3319040","Parent":"3319","Name":"UNDAAN","Latitude":"-6.9170557785117","Longitude":"110.82746798319","Postal":"59372"},{"Code":"3319050","Parent":"3319","Name":"MEJOBO","Latitude":"-6.8339122595499","Longitude":"110.88677424181","Postal":"59381"},{"Code":"3319060","Parent":"3319","Name":"JEKULO","Latitude":"-6.8024229785052","Longitude":"110.93144736909","Postal":"59382"},{"Code":"3319070","Parent":"3319","Name":"BAE","Latitude":"-6.7794760474952","Longitude":"110.86334470243","Postal":"59321,59322,59323,59324,59325,59326,59327,59328,59329"},{"Code":"3319080","Parent":"3319","Name":"GEBOG","Latitude":"-6.7048127875075","Longitude":"110.84933827813","Postal":"59354,59333"},{"Code":"3319090","Parent":"3319","Name":"DAWE","Latitude":"-6.7022037190003","Longitude":"110.89418575901","Postal":"59353"}]