[{"Code":"3320010","Parent":"3320","Name":"KEDUNG","Latitude":"-6.6806083985099","Longitude":"110.64195731915","Postal":"59463"},{"Code":"3320020","Parent":"3320","Name":"PECANGAAN","Latitude":"-6.7004105850124","Longitude":"110.7033956082","Postal":"59462,59460"},{"Code":"3320021","Parent":"3320","Name":"KALINYAMATAN","Latitude":"-6.7204790900334","Longitude":"110.71719026406","Postal":"59467,59462"},{"Code":"3320030","Parent":"3320","Name":"WELAHAN","Latitude":"-6.7652109794585","Longitude":"110.70367208983","Postal":"59464"},{"Code":"3320040","Parent":"3320","Name":"MAYONG","Latitude":"-6.7162850000011","Longitude":"110.78114000001","Postal":"59465"},{"Code":"3320050","Parent":"3320","Name":"NALUMSARI","Latitude":"-6.7269542844883","Longitude":"110.7926499773","Postal":"59466"},{"Code":"3320060","Parent":"3320","Name":"BATEALIT","Latitude":"-6.6501699574862","Longitude":"110.78416876726","Postal":"59461"},{"Code":"3320070","Parent":"3320","Name":"TAHUNAN","Latitude":"-6.6242454945183","Longitude":"110.69401615031","Postal":"59451,59421"},{"Code":"3320080","Parent":"3320","Name":"JEPARA","Latitude":"-6.5800362285308","Longitude":"110.66652463502","Postal":"59411,59412,59413,59414,59415,59416,59417,59418,59419,59432"},{"Code":"3320090","Parent":"3320","Name":"MLONGGO","Latitude":"-6.5184330704831","Longitude":"110.70493791022","Postal":"59452"},{"Code":"3320091","Parent":"3320","Name":"PAKIS AJI","Latitude":"-6.5818876115082","Longitude":"110.76975825714","Postal":"59456,59450"},{"Code":"3320100","Parent":"3320","Name":"BANGSRI","Latitude":"-6.5204299999956","Longitude":"110.77677201443","Postal":"59453"},{"Code":"3320101","Parent":"3320","Name":"KEMBANG","Latitude":"-6.518075000004","Longitude":"110.80166313257","Postal":"59457"},{"Code":"3320110","Parent":"3320","Name":"KELING","Latitude":"-6.5172164835041","Longitude":"110.85865926908","Postal":"59454,59456"},{"Code":"3320111","Parent":"3320","Name":"DONOROJO","Latitude":"-6.438752627484","Longitude":"110.90643394572","Postal":"59458,59454"},{"Code":"3320120","Parent":"3320","Name":"KARIMUNJAWA","Latitude":"-5.8111520674986","Longitude":"110.38498869347","Postal":"59455"}]