[{"Code":"3327010","Parent":"3327","Name":"MOGA","Latitude":"-7.1270949999725","Longitude":"109.23752838608","Postal":"52354"},{"Code":"3327011","Parent":"3327","Name":"WARUNGPRING","Latitude":"-7.0772049319594","Longitude":"109.25997594137","Postal":"52358"},{"Code":"3327020","Parent":"3327","Name":"PULOSARI","Latitude":"-7.1943175450018","Longitude":"109.24110761702","Postal":"52355"},{"Code":"3327030","Parent":"3327","Name":"BELIK","Latitude":"-7.1602508425137","Longitude":"109.34491500021","Postal":"52352,52356"},{"Code":"3327040","Parent":"3327","Name":"WATUKUMPUL","Latitude":"-7.1676822115036","Longitude":"109.44582000056","Postal":"52357"},{"Code":"3327050","Parent":"3327","Name":"BODEH","Latitude":"-7.0191785079997","Longitude":"109.490529112","Postal":"52365"},{"Code":"3327060","Parent":"3327","Name":"BANTARBOLANG","Latitude":"-7.0474399999966","Longitude":"109.39189499995","Postal":"52352,52356"},{"Code":"3327070","Parent":"3327","Name":"RANDUDONGKAL","Latitude":"-7.0496384689893","Longitude":"109.32199999983","Postal":"52353"},{"Code":"3327080","Parent":"3327","Name":"PEMALANG","Latitude":"-6.9297250000135","Longitude":"109.36480207721","Postal":"52311,52312,52313,52314,52315,52316,52317,52318,52319"},{"Code":"3327090","Parent":"3327","Name":"TAMAN","Latitude":"-6.9056450000048","Longitude":"109.42473000008","Postal":"52361"},{"Code":"3327100","Parent":"3327","Name":"PETARUKAN","Latitude":"-6.8816827450201","Longitude":"109.47245500032","Postal":"52362"},{"Code":"3327110","Parent":"3327","Name":"AMPELGADING","Latitude":"-6.9413550000075","Longitude":"109.48019077212","Postal":"52364"},{"Code":"3327120","Parent":"3327","Name":"COMAL","Latitude":"-6.8875583260011","Longitude":"109.52695892704","Postal":"52363"},{"Code":"3327130","Parent":"3327","Name":"ULUJAMI","Latitude":"-6.8472399590005","Longitude":"109.5458435485","Postal":"52371"}]