[{"Code":"3328010","Parent":"3328","Name":"MARGASARI","Latitude":"-7.0959364634905","Longitude":"109.01433591536","Postal":"52465,52463"},{"Code":"3328020","Parent":"3328","Name":"BUMIJAWA","Latitude":"-7.1883413780009","Longitude":"109.13242894951","Postal":"52466"},{"Code":"3328030","Parent":"3328","Name":"BOJONG","Latitude":"-7.1650050265043","Longitude":"109.17932781657","Postal":"52465,52463"},{"Code":"3328040","Parent":"3328","Name":"BALAPULANG","Latitude":"-7.0790614295167","Longitude":"109.11214801526","Postal":"52464"},{"Code":"3328050","Parent":"3328","Name":"PAGERBARANG","Latitude":"-7.0141185500491","Longitude":"109.05679470275","Postal":"52462"},{"Code":"3328060","Parent":"3328","Name":"LEBAKSIU","Latitude":"-7.0294104194795","Longitude":"109.12896104469","Postal":"52461"},{"Code":"3328070","Parent":"3328","Name":"JATINEGARA","Latitude":"-7.0462925919917","Longitude":"109.22994166337","Postal":"52473"},{"Code":"3328080","Parent":"3328","Name":"KEDUNG BANTENG","Latitude":"-6.9842049999962","Longitude":"109.23202355544","Postal":"52472"},{"Code":"3328090","Parent":"3328","Name":"PANGKAH","Latitude":"-6.9931605774949","Longitude":"109.16831969642","Postal":"52471"},{"Code":"3328100","Parent":"3328","Name":"SLAWI","Latitude":"-6.9848263744448","Longitude":"109.13338262813","Postal":"52411,52412,52413,52414,52415,52416,52417,52418,52419"},{"Code":"3328110","Parent":"3328","Name":"DUKUHWARU","Latitude":"-6.9725949999987","Longitude":"109.09853772148","Postal":"52451"},{"Code":"3328120","Parent":"3328","Name":"ADIWERNA","Latitude":"-6.9340585959562","Longitude":"109.11002804281","Postal":"52494,52121,52194"},{"Code":"3328130","Parent":"3328","Name":"DUKUHTURI","Latitude":"-6.905566060485","Longitude":"109.11606470876","Postal":"52492,52192"},{"Code":"3328140","Parent":"3328","Name":"TALANG","Latitude":"-6.9180924079955","Longitude":"109.14852759392","Postal":"52493,52193"},{"Code":"3328150","Parent":"3328","Name":"TARUB","Latitude":"-6.9256918734627","Longitude":"109.18730999942","Postal":"52484,52184"},{"Code":"3328160","Parent":"3328","Name":"KRAMAT","Latitude":"-6.8811588935087","Longitude":"109.19309413414","Postal":"52481,52181"},{"Code":"3328170","Parent":"3328","Name":"SURADADI","Latitude":"-6.9047450000285","Longitude":"109.25159163296","Postal":"52482,52182"},{"Code":"3328180","Parent":"3328","Name":"WARUREJA","Latitude":"-6.9254499144908","Longitude":"109.31944041636","Postal":"52483,52183"}]