[{"Code":"3502010","Parent":"3502","Name":"NGRAYUN","Latitude":"-8.1101244719907","Longitude":"111.44467160687","Postal":"63464"},{"Code":"3502020","Parent":"3502","Name":"SLAHUNG","Latitude":"-8.0201750000044","Longitude":"111.39865817905","Postal":"63463"},{"Code":"3502030","Parent":"3502","Name":"BUNGKAL","Latitude":"-8.0150600000122","Longitude":"111.46449500016","Postal":"63462"},{"Code":"3502040","Parent":"3502","Name":"SAMBIT","Latitude":"-7.9991229579736","Longitude":"111.51704214314","Postal":"63474"},{"Code":"3502050","Parent":"3502","Name":"SAWOO","Latitude":"-7.9842850000067","Longitude":"111.59390715109","Postal":"63475"},{"Code":"3502060","Parent":"3502","Name":"SOOKO","Latitude":"-7.9162013600127","Longitude":"111.65208609667","Postal":"63482"},{"Code":"3502061","Parent":"3502","Name":"PUDAK","Latitude":"-7.8609882314574","Longitude":"111.73539447389","Postal":"63483,63418"},{"Code":"3502070","Parent":"3502","Name":"PULUNG","Latitude":"-7.8694566950001","Longitude":"111.6544044585","Postal":"63481"},{"Code":"3502080","Parent":"3502","Name":"MLARAK","Latitude":"-7.9177625744577","Longitude":"111.52318212189","Postal":"63472"},{"Code":"3502090","Parent":"3502","Name":"SIMAN","Latitude":"","Longitude":"","Postal":"63471"},{"Code":"3502100","Parent":"3502","Name":"JETIS","Latitude":"-7.9389455519332","Longitude":"111.48494999906","Postal":"63473"},{"Code":"3502110","Parent":"3502","Name":"BALONG","Latitude":"-7.9476027590071","Longitude":"111.4021446356","Postal":"63461"},{"Code":"3502120","Parent":"3502","Name":"KAUMAN","Latitude":"-7.883737783573","Longitude":"111.41807175203","Postal":"63451"},{"Code":"3502130","Parent":"3502","Name":"JAMBON","Latitude":"-7.9250388820135","Longitude":"111.36965165918","Postal":"63456"},{"Code":"3502140","Parent":"3502","Name":"BADEGAN","Latitude":"-7.897699600497","Longitude":"111.32398891346","Postal":"63455"},{"Code":"3502150","Parent":"3502","Name":"SAMPUNG","Latitude":"-7.8276270155104","Longitude":"111.34498966265","Postal":"63454"},{"Code":"3502160","Parent":"3502","Name":"SUKOREJO","Latitude":"-7.8375282459892","Longitude":"111.41772103034","Postal":"63453"},{"Code":"3502170","Parent":"3502","Name":"PONOROGO","Latitude":"-7.8663582749783","Longitude":"111.4691782857","Postal":"63411,63412,63413,63414,63415,63416,63417,63418,63419"},{"Code":"3502180","Parent":"3502","Name":"BABADAN","Latitude":"-7.8225747230284","Longitude":"111.4809300004","Postal":"63491"},{"Code":"3502190","Parent":"3502","Name":"JENANGAN","Latitude":"-7.8338100000261","Longitude":"111.54973516187","Postal":"63492"},{"Code":"3502200","Parent":"3502","Name":"NGEBEL","Latitude":"","Longitude":"","Postal":"63493"}]