[{"Code":"3506010","Parent":"3506","Name":"MOJO","Latitude":"-7.9051542485022","Longitude":"111.89577285003","Postal":"64162"},{"Code":"3506020","Parent":"3506","Name":"SEMEN","Latitude":"-7.8356830295168","Longitude":"111.90068421374","Postal":"64161"},{"Code":"3506030","Parent":"3506","Name":"NGADILUWIH","Latitude":"-7.8968070729954","Longitude":"111.99668333293","Postal":"64171,64174"},{"Code":"3506040","Parent":"3506","Name":"KRAS","Latitude":"-7.965891656001","Longitude":"111.97878684751","Postal":"64172,64176"},{"Code":"3506050","Parent":"3506","Name":"RINGINREJO","Latitude":"-7.9680917019932","Longitude":"112.0490734914","Postal":"64172,64176"},{"Code":"3506060","Parent":"3506","Name":"KANDAT","Latitude":"-7.9166769504796","Longitude":"112.03694402471","Postal":"64173,64137"},{"Code":"3506070","Parent":"3506","Name":"WATES","Latitude":"-7.902710497524","Longitude":"112.10350453184","Postal":"64171,64175,64174"},{"Code":"3506080","Parent":"3506","Name":"NGANCAR","Latitude":"-7.9365363725119","Longitude":"112.20507296567","Postal":"64191,64192,64156,64291"},{"Code":"3506090","Parent":"3506","Name":"PLOSOKLATEN","Latitude":"-7.8729030209999","Longitude":"112.1948246195","Postal":"64175,64174"},{"Code":"3506100","Parent":"3506","Name":"GURAH","Latitude":"-7.822663194032","Longitude":"112.10788944046","Postal":"64182,64181,64184,64113"},{"Code":"3506110","Parent":"3506","Name":"PUNCU","Latitude":"","Longitude":"","Postal":"64191,64192,64292"},{"Code":"3506120","Parent":"3506","Name":"KEPUNG","Latitude":"-7.8426239160076","Longitude":"112.27019066861","Postal":"64193,64293"},{"Code":"3506130","Parent":"3506","Name":"KANDANGAN","Latitude":"-7.7496460965158","Longitude":"112.32776419973","Postal":"64194,64294"},{"Code":"3506140","Parent":"3506","Name":"PARE","Latitude":"-7.784318043511","Longitude":"112.17563635015","Postal":"64195,64211,64229"},{"Code":"3506141","Parent":"3506","Name":"BADAS","Latitude":"-7.7255380579549","Longitude":"112.20340116285","Postal":"64196,64216,64224"},{"Code":"3506150","Parent":"3506","Name":"KUNJANG","Latitude":"-7.6603280750408","Longitude":"112.1786529151","Postal":"64156"},{"Code":"3506160","Parent":"3506","Name":"PLEMAHAN","Latitude":"-7.7094730625111","Longitude":"112.15438463266","Postal":"64155"},{"Code":"3506170","Parent":"3506","Name":"PURWOASRI","Latitude":"-7.6355811939672","Longitude":"112.13072833903","Postal":"64151,64154"},{"Code":"3506180","Parent":"3506","Name":"PAPAR","Latitude":"-7.704979562003","Longitude":"112.07741850453","Postal":"64153"},{"Code":"3506190","Parent":"3506","Name":"PAGU","Latitude":"-7.7803293804823","Longitude":"112.08689994125","Postal":"64183,64184"},{"Code":"3506191","Parent":"3506","Name":"KAYEN KIDUL","Latitude":"-7.7415332500015","Longitude":"112.09329705252","Postal":"64185,64183"},{"Code":"3506200","Parent":"3506","Name":"GAMPENGREJO","Latitude":"","Longitude":"","Postal":"64182,64181"},{"Code":"3506201","Parent":"3506","Name":"NGASEM","Latitude":"-7.8015286779654","Longitude":"112.04467635751","Postal":"64181,64184"},{"Code":"3506210","Parent":"3506","Name":"BANYAKAN","Latitude":"-7.7863055445157","Longitude":"111.91845565872","Postal":"64157"},{"Code":"3506220","Parent":"3506","Name":"GROGOL","Latitude":"-7.7559093905011","Longitude":"111.92015610752","Postal":"64151"},{"Code":"3506230","Parent":"3506","Name":"TAROKAN","Latitude":"-7.7250377399835","Longitude":"111.93097334875","Postal":"64152"}]