[{"Code":"3512010","Parent":"3512","Name":"SUMBERMALANG","Latitude":"-7.8743028999994","Longitude":"113.67289675449","Postal":"68355"},{"Code":"3512020","Parent":"3512","Name":"JATIBANTENG","Latitude":"-7.830214514994","Longitude":"113.65169690791","Postal":"68358,68357,68353,68351"},{"Code":"3512030","Parent":"3512","Name":"BANYUGLUGUR","Latitude":"-7.7571399824741","Longitude":"113.62827124962","Postal":"68359"},{"Code":"3512040","Parent":"3512","Name":"BESUKI","Latitude":"-7.750585646945","Longitude":"113.70426879171","Postal":"68356"},{"Code":"3512050","Parent":"3512","Name":"SUBOH","Latitude":"-7.7641250000294","Longitude":"113.73909448344","Postal":"68354"},{"Code":"3512060","Parent":"3512","Name":"MLANDINGAN","Latitude":"-7.7745039629923","Longitude":"113.79674701489","Postal":"68357,68353"},{"Code":"3512070","Parent":"3512","Name":"BUNGATAN","Latitude":"","Longitude":"","Postal":"68358,68357"},{"Code":"3512080","Parent":"3512","Name":"KENDIT","Latitude":"-7.7415811404872","Longitude":"113.91546999981","Postal":"68352"},{"Code":"3512090","Parent":"3512","Name":"PANARUKAN","Latitude":"-7.6929882979891","Longitude":"113.96852615483","Postal":"68357,68351"},{"Code":"3512100","Parent":"3512","Name":"SITUBONDO","Latitude":"-7.7203397524527","Longitude":"113.9858471128","Postal":"68311,68312,68314,68315,68316"},{"Code":"3512110","Parent":"3512","Name":"MANGARAN","Latitude":"-7.6400401260248","Longitude":"114.04532228987","Postal":"68363"},{"Code":"3512120","Parent":"3512","Name":"PANJI","Latitude":"-7.7080823360286","Longitude":"114.03511403542","Postal":"68321,68322,68324,68323"},{"Code":"3512130","Parent":"3512","Name":"KAPONGAN","Latitude":"-7.7116273149851","Longitude":"114.08033523279","Postal":"68362"},{"Code":"3512140","Parent":"3512","Name":"ARJASA","Latitude":"-7.8500504120136","Longitude":"114.12292251069","Postal":"68371"},{"Code":"3512150","Parent":"3512","Name":"JANGKAR","Latitude":"-7.775912489521","Longitude":"114.17436698931","Postal":"68372"},{"Code":"3512160","Parent":"3512","Name":"ASEMBAGUS","Latitude":"-7.8421960645042","Longitude":"114.21677705556","Postal":"68373"},{"Code":"3512170","Parent":"3512","Name":"BANYUPUTIH","Latitude":"-7.8258165879955","Longitude":"114.34983499994","Postal":"68374"}]