[{"Code":"3513010","Parent":"3513","Name":"SUKAPURA","Latitude":"","Longitude":"","Postal":"67254"},{"Code":"3513020","Parent":"3513","Name":"SUMBER","Latitude":"-7.955230569007","Longitude":"113.0817912166","Postal":"67263"},{"Code":"3513030","Parent":"3513","Name":"KURIPAN","Latitude":"-7.9067352175068","Longitude":"113.1359453041","Postal":"67262"},{"Code":"3513040","Parent":"3513","Name":"BANTARAN","Latitude":"-7.8715721034587","Longitude":"113.1819449999","Postal":"67261,67283"},{"Code":"3513050","Parent":"3513","Name":"LECES","Latitude":"-7.8547611055089","Longitude":"113.22787114964","Postal":"67273"},{"Code":"3513060","Parent":"3513","Name":"TEGALSIWALAN","Latitude":"-7.8728108149986","Longitude":"113.26049602448","Postal":"67274"},{"Code":"3513070","Parent":"3513","Name":"BANYUANYAR","Latitude":"-7.8695959169771","Longitude":"113.31356499967","Postal":"67275,67276"},{"Code":"3513080","Parent":"3513","Name":"TIRIS","Latitude":"-7.9447884805006","Longitude":"113.39101683401","Postal":"67287"},{"Code":"3513090","Parent":"3513","Name":"KRUCIL","Latitude":"-7.9421267944933","Longitude":"113.5187710809","Postal":"67288"},{"Code":"3513100","Parent":"3513","Name":"GADING","Latitude":"-7.8718400000015","Longitude":"113.49661959753","Postal":"67285,67292"},{"Code":"3513110","Parent":"3513","Name":"PAKUNIRAN","Latitude":"-7.8217945645024","Longitude":"113.55405180553","Postal":"67292,67290"},{"Code":"3513120","Parent":"3513","Name":"KOTAANYAR","Latitude":"","Longitude":"","Postal":"67293"},{"Code":"3513130","Parent":"3513","Name":"PAITON","Latitude":"-7.7310999999914","Longitude":"113.52874996437","Postal":"67291"},{"Code":"3513140","Parent":"3513","Name":"BESUK","Latitude":"-7.7932250000384","Longitude":"113.47399000107","Postal":"67283,67282"},{"Code":"3513150","Parent":"3513","Name":"KRAKSAAN","Latitude":"-7.7533850000409","Longitude":"113.4260350016","Postal":"67282"},{"Code":"3513160","Parent":"3513","Name":"KREJENGAN","Latitude":"-7.7992299999933","Longitude":"113.41549999991","Postal":"67284"},{"Code":"3513170","Parent":"3513","Name":"PAJARAKAN","Latitude":"-7.7798099999594","Longitude":"113.37110500039","Postal":"67281"},{"Code":"3513180","Parent":"3513","Name":"MARON","Latitude":"-7.8418849999698","Longitude":"113.36220519807","Postal":"67276"},{"Code":"3513190","Parent":"3513","Name":"GENDING","Latitude":"-7.7965049999901","Longitude":"113.31756167985","Postal":"67272"},{"Code":"3513200","Parent":"3513","Name":"DRINGU","Latitude":"-7.7855684925117","Longitude":"113.25683193567","Postal":"67271"},{"Code":"3513210","Parent":"3513","Name":"WONOMERTO","Latitude":"-7.8289722390222","Longitude":"113.15497984132","Postal":"67253"},{"Code":"3513220","Parent":"3513","Name":"LUMBANG","Latitude":"-7.841242707492","Longitude":"113.04678386238","Postal":"67255"},{"Code":"3513230","Parent":"3513","Name":"TONGAS","Latitude":"","Longitude":"","Postal":"67252"},{"Code":"3513240","Parent":"3513","Name":"SUMBERASIH","Latitude":"-7.7442695355143","Longitude":"113.19414983021","Postal":"67251"}]