[{"Code":"3515010","Parent":"3515","Name":"TARIK","Latitude":"-7.4478363589679","Longitude":"112.51087771653","Postal":"61265"},{"Code":"3515020","Parent":"3515","Name":"PRAMBON","Latitude":"-7.4657762620084","Longitude":"112.57950486163","Postal":"61262,61264"},{"Code":"3515030","Parent":"3515","Name":"KREMBUNG","Latitude":"-7.5167743939788","Longitude":"112.63772260219","Postal":"61275"},{"Code":"3515040","Parent":"3515","Name":"PORONG","Latitude":"-7.531752372511","Longitude":"112.73002762467","Postal":"61274"},{"Code":"3515050","Parent":"3515","Name":"JABON","Latitude":"-7.5351332830048","Longitude":"112.78807177208","Postal":"61276"},{"Code":"3515060","Parent":"3515","Name":"TANGGULANGIN","Latitude":"-7.5068577895123","Longitude":"112.72146835169","Postal":"61272"},{"Code":"3515070","Parent":"3515","Name":"CANDI","Latitude":"-7.4852958014736","Longitude":"112.7319990631","Postal":"61271"},{"Code":"3515080","Parent":"3515","Name":"TULANGAN","Latitude":"","Longitude":"","Postal":"61273"},{"Code":"3515090","Parent":"3515","Name":"WONOAYU","Latitude":"-7.4279082804803","Longitude":"112.62919912671","Postal":"61261"},{"Code":"3515100","Parent":"3515","Name":"SUKODONO","Latitude":"-7.3974885279946","Longitude":"112.66534348991","Postal":"61258,61216"},{"Code":"3515110","Parent":"3515","Name":"SIDOARJO","Latitude":"-7.4735770014954","Longitude":"112.74185887193","Postal":"61211,61212,61213,61214,61215,61216,61217,61218,61219,61234"},{"Code":"3515120","Parent":"3515","Name":"BUDURAN","Latitude":"-7.4429440685021","Longitude":"112.75514949303","Postal":"61252"},{"Code":"3515130","Parent":"3515","Name":"SEDATI","Latitude":"-7.4034446920179","Longitude":"112.79361870577","Postal":"61253"},{"Code":"3515140","Parent":"3515","Name":"WARU","Latitude":"-7.3535776365267","Longitude":"112.76819328491","Postal":"61256"},{"Code":"3515150","Parent":"3515","Name":"GEDANGAN","Latitude":"-7.3893552999626","Longitude":"112.72826342692","Postal":"61254"},{"Code":"3515160","Parent":"3515","Name":"TAMAN","Latitude":"-7.3631163994597","Longitude":"112.66746470339","Postal":"61257,61212"},{"Code":"3515170","Parent":"3515","Name":"KRIAN","Latitude":"-7.4029043069648","Longitude":"112.59506499946","Postal":"61262,61264"},{"Code":"3515180","Parent":"3515","Name":"BALONG BENDO","Latitude":"-7.4185311509806","Longitude":"112.5242357932","Postal":"61263"}]