[{"Code":"3520010","Parent":"3520","Name":"PONCOL","Latitude":"-7.7222687165106","Longitude":"111.24482093615","Postal":"63362"},{"Code":"3520020","Parent":"3520","Name":"PARANG","Latitude":"-7.747416715999","Longitude":"111.33206914599","Postal":"63371"},{"Code":"3520030","Parent":"3520","Name":"LEMBEYAN","Latitude":"-7.7477575759991","Longitude":"111.40810323799","Postal":"63372"},{"Code":"3520040","Parent":"3520","Name":"TAKERAN","Latitude":"","Longitude":"","Postal":"63383,63381"},{"Code":"3520041","Parent":"3520","Name":"NGUNTORONADI","Latitude":"-7.7116049999053","Longitude":"111.45140937014","Postal":"63381,63383"},{"Code":"3520050","Parent":"3520","Name":"KAWEDANAN","Latitude":"-7.6960400000195","Longitude":"111.40654500027","Postal":"63382"},{"Code":"3520060","Parent":"3520","Name":"MAGETAN","Latitude":"-7.6455215449861","Longitude":"111.33445399381","Postal":"63311,63312,63313,63314,63315,63316,63317,63318,63319"},{"Code":"3520061","Parent":"3520","Name":"NGARIBOYO","Latitude":"-7.6911849999714","Longitude":"111.3428499996","Postal":"63351,63352,63361"},{"Code":"3520070","Parent":"3520","Name":"PLAOSAN","Latitude":"-7.6691574609931","Longitude":"111.2480873159","Postal":"63361"},{"Code":"3520071","Parent":"3520","Name":"SIDOREJO","Latitude":"-7.6522107779581","Longitude":"111.25181320389","Postal":"63363,63319,63361"},{"Code":"3520080","Parent":"3520","Name":"PANEKAN","Latitude":"-7.6142308764985","Longitude":"111.27401878648","Postal":"63351,63352"},{"Code":"3520090","Parent":"3520","Name":"SUKOMORO","Latitude":"-7.6267096905109","Longitude":"111.37079599867","Postal":"63391"},{"Code":"3520100","Parent":"3520","Name":"BENDO","Latitude":"-7.6365800459759","Longitude":"111.43454901265","Postal":"63384"},{"Code":"3520110","Parent":"3520","Name":"MAOSPATI","Latitude":"-7.5997383544501","Longitude":"111.44381331527","Postal":"63392"},{"Code":"3520120","Parent":"3520","Name":"KARANGREJO","Latitude":"","Longitude":"","Postal":"63395"},{"Code":"3520121","Parent":"3520","Name":"KARAS","Latitude":"-7.5748161250134","Longitude":"111.3737889012","Postal":"63396,63393"},{"Code":"3520130","Parent":"3520","Name":"BARAT","Latitude":"-7.5543464775383","Longitude":"111.46864644058","Postal":"63393,63137,63395"},{"Code":"3520131","Parent":"3520","Name":"KARTOHARJO","Latitude":"-7.531948989534","Longitude":"111.4682116655","Postal":"63394"}]