[{"Code":"3521010","Parent":"3521","Name":"SINE","Latitude":"-7.5227465790089","Longitude":"111.16487801463","Postal":"63264"},{"Code":"3521020","Parent":"3521","Name":"NGRAMBE","Latitude":"-7.5105900000032","Longitude":"111.22442201105","Postal":"63263"},{"Code":"3521030","Parent":"3521","Name":"JOGOROGO","Latitude":"-7.5438091739952","Longitude":"111.26109202093","Postal":"63262"},{"Code":"3521040","Parent":"3521","Name":"KENDAL","Latitude":"-7.5610737315055","Longitude":"111.27727676508","Postal":"63261"},{"Code":"3521050","Parent":"3521","Name":"GENENG","Latitude":"-7.4776693175127","Longitude":"111.43087120169","Postal":"63271"},{"Code":"3521051","Parent":"3521","Name":"GERIH","Latitude":"-7.5374120555086","Longitude":"111.38643684012","Postal":"63272,63270"},{"Code":"3521060","Parent":"3521","Name":"KWADUNGAN","Latitude":"-7.510618657512","Longitude":"111.51238134418","Postal":"63283"},{"Code":"3521070","Parent":"3521","Name":"PANGKUR","Latitude":"","Longitude":"","Postal":"63282"},{"Code":"3521080","Parent":"3521","Name":"KARANGJATI","Latitude":"-7.4473254224863","Longitude":"111.6079244278","Postal":"63284"},{"Code":"3521090","Parent":"3521","Name":"BRINGIN","Latitude":"-7.3993489405075","Longitude":"111.58714123312","Postal":"63285"},{"Code":"3521100","Parent":"3521","Name":"PADAS","Latitude":"-7.442965412509","Longitude":"111.52760448663","Postal":"63281,63280"},{"Code":"3521101","Parent":"3521","Name":"KASREMAN","Latitude":"-7.406106906474","Longitude":"111.5193343551","Postal":"63286,63281"},{"Code":"3521110","Parent":"3521","Name":"NGAWI","Latitude":"-7.4191051334951","Longitude":"111.44344999993","Postal":"63211,63212,63213,63214,63215,63216,63217,63218,63219"},{"Code":"3521120","Parent":"3521","Name":"PARON","Latitude":"-7.455000000012","Longitude":"111.36775910068","Postal":"63253"},{"Code":"3521130","Parent":"3521","Name":"KEDUNGGALAR","Latitude":"-7.4316192574991","Longitude":"111.31567999999","Postal":"63254"},{"Code":"3521140","Parent":"3521","Name":"PITU","Latitude":"-7.3604470674833","Longitude":"111.37314999975","Postal":"63252"},{"Code":"3521150","Parent":"3521","Name":"WIDODAREN","Latitude":"-7.4071538030163","Longitude":"111.23221000025","Postal":"63256"},{"Code":"3521160","Parent":"3521","Name":"MANTINGAN","Latitude":"-7.3807657349956","Longitude":"111.16411436492","Postal":"63257,63260"},{"Code":"3521170","Parent":"3521","Name":"KARANGANYAR","Latitude":"","Longitude":"","Postal":"63258,63257"}]