[{"Code":"3524010","Parent":"3524","Name":"SUKORAME","Latitude":"-7.3452591100294","Longitude":"112.11341315244","Postal":"62275,62276"},{"Code":"3524020","Parent":"3524","Name":"BLULUK","Latitude":"-7.3014581279808","Longitude":"112.12564177672","Postal":"62274"},{"Code":"3524030","Parent":"3524","Name":"NGIMBANG","Latitude":"-7.2967423945014","Longitude":"112.19365481902","Postal":"62273"},{"Code":"3524040","Parent":"3524","Name":"SAMBENG","Latitude":"-7.2893342339835","Longitude":"112.28576988425","Postal":"62284"},{"Code":"3524050","Parent":"3524","Name":"MANTUP","Latitude":"-7.2619780439992","Longitude":"112.35502307299","Postal":"62283"},{"Code":"3524060","Parent":"3524","Name":"KEMBANGBAHU","Latitude":"","Longitude":"","Postal":"62282"},{"Code":"3524070","Parent":"3524","Name":"SUGIO","Latitude":"-7.185929999993","Longitude":"112.27822967889","Postal":"62255,62256"},{"Code":"3524080","Parent":"3524","Name":"KEDUNGPRING","Latitude":"-7.1904746854887","Longitude":"112.20495737633","Postal":"62272"},{"Code":"3524090","Parent":"3524","Name":"MODO","Latitude":"-7.2016593654936","Longitude":"112.1320051079","Postal":"62275,62276"},{"Code":"3524100","Parent":"3524","Name":"BABAT","Latitude":"-7.1090760150158","Longitude":"112.20970453025","Postal":"62271"},{"Code":"3524110","Parent":"3524","Name":"PUCUK","Latitude":"-7.0911270509802","Longitude":"112.29505974169","Postal":"62257"},{"Code":"3524120","Parent":"3524","Name":"SUKODADI","Latitude":"-7.112755000012","Longitude":"112.34011000019","Postal":"62253"},{"Code":"3524130","Parent":"3524","Name":"LAMONGAN","Latitude":"-7.1276049999872","Longitude":"112.3937183723","Postal":"62211,62212,62213,62214,62215,62216,62217,62218,62219"},{"Code":"3524140","Parent":"3524","Name":"TIKUNG","Latitude":"-7.1852911849915","Longitude":"112.40941750887","Postal":"62281,62280"},{"Code":"3524141","Parent":"3524","Name":"SARIREJO","Latitude":"-7.1721337684691","Longitude":"112.46119667151","Postal":"62285,62281"},{"Code":"3524150","Parent":"3524","Name":"DEKET","Latitude":"-7.0957664629818","Longitude":"112.4586850182","Postal":"62291"},{"Code":"3524160","Parent":"3524","Name":"GLAGAH","Latitude":"","Longitude":"","Postal":"62292"},{"Code":"3524170","Parent":"3524","Name":"KARANGBINANGUN","Latitude":"-7.0337431095052","Longitude":"112.46453826358","Postal":"62293"},{"Code":"3524180","Parent":"3524","Name":"TURI","Latitude":"-7.0685101205216","Longitude":"112.38682054334","Postal":"62252"},{"Code":"3524190","Parent":"3524","Name":"KALITENGAH","Latitude":"-7.0212930104737","Longitude":"112.39373810508","Postal":"62255,62256"},{"Code":"3524200","Parent":"3524","Name":"KARANG GENENG","Latitude":"-7.0208517509793","Longitude":"112.34318943066","Postal":"62254"},{"Code":"3524210","Parent":"3524","Name":"SEKARAN","Latitude":"-7.0519619430191","Longitude":"112.2746011528","Postal":"62261,62260"},{"Code":"3524220","Parent":"3524","Name":"MADURAN","Latitude":"-7.0050663114836","Longitude":"112.27153080023","Postal":"62266,62261"},{"Code":"3524230","Parent":"3524","Name":"LAREN","Latitude":"-6.9789019440014","Longitude":"112.28871020552","Postal":"62262"},{"Code":"3524240","Parent":"3524","Name":"SOLOKURO","Latitude":"-6.9286267474979","Longitude":"112.35203494297","Postal":"62265"},{"Code":"3524250","Parent":"3524","Name":"PACIRAN","Latitude":"-6.8899993305137","Longitude":"112.37428040022","Postal":"62264"},{"Code":"3524260","Parent":"3524","Name":"BRONDONG","Latitude":"-6.9095083199892","Longitude":"112.23622389683","Postal":"62263"}]