[{"Code":"3671010","Parent":"3671","Name":"CILEDUG","Latitude":"-6.2400939649476","Longitude":"106.70485917758","Postal":"15151,15152,15153"},{"Code":"3671011","Parent":"3671","Name":"LARANGAN","Latitude":"-6.2382292404841","Longitude":"106.73323692921","Postal":"15154,15155,15156"},{"Code":"3671012","Parent":"3671","Name":"KARANG TENGAH","Latitude":"-6.2096496811853","Longitude":"106.70870892518","Postal":"15157,15158,15159"},{"Code":"3671020","Parent":"3671","Name":"CIPONDOH","Latitude":"-6.1829670854909","Longitude":"106.68272712335","Postal":"15141,15146,15147,15148"},{"Code":"3671021","Parent":"3671","Name":"PINANG","Latitude":"-6.2135585889838","Longitude":"106.66223173673","Postal":"15142,15143,15144,15145"},{"Code":"3671030","Parent":"3671","Name":"TANGERANG","Latitude":"-6.1896136834994","Longitude":"106.64097432348","Postal":"15111,15117,15118,15119"},{"Code":"3671031","Parent":"3671","Name":"KARAWACI","Latitude":"-6.1828699999826","Longitude":"106.6175789792","Postal":"15112,15113,15114,15115,15116"},{"Code":"3671040","Parent":"3671","Name":"JATI UWUNG","Latitude":"-6.1987448910329","Longitude":"106.57359806755","Postal":"15133,15134,15135,15136,15137"},{"Code":"3671041","Parent":"3671","Name":"CIBODAS","Latitude":"-6.2035317384502","Longitude":"106.60848072215","Postal":"15138,15139,15134"},{"Code":"3671042","Parent":"3671","Name":"PERIUK","Latitude":"-6.1688849310619","Longitude":"106.59096306257","Postal":"15131,15132,15133"},{"Code":"3671050","Parent":"3671","Name":"BATUCEPER","Latitude":"-6.1646726664893","Longitude":"106.66985606581","Postal":"15121,15122"},{"Code":"3671051","Parent":"3671","Name":"NEGLASARI","Latitude":"-6.1366724879615","Longitude":"106.63073740581","Postal":"15127,15128,15129,15121"},{"Code":"3671060","Parent":"3671","Name":"BENDA","Latitude":"-6.1259025509929","Longitude":"106.66518416537","Postal":"15123,15124,15125,15126"}]