[{"Code":"3673010","Parent":"3673","Name":"CURUG","Latitude":"-6.1827086989555","Longitude":"106.17206499924","Postal":"42131,42132,42133,42134,42171"},{"Code":"3673020","Parent":"3673","Name":"WALANTAKA","Latitude":"-6.1442304904781","Longitude":"106.22799028062","Postal":"42135,42136,42137,42138,42139,42183"},{"Code":"3673030","Parent":"3673","Name":"CIPOCOK JAYA","Latitude":"-6.1381700000184","Longitude":"106.16513500032","Postal":"42121,42122,42123,42124,42125,42126,42127,42128"},{"Code":"3673040","Parent":"3673","Name":"SERANG","Latitude":"-6.1104782695469","Longitude":"106.16624500083","Postal":"42111,42112,42113,42114,42115,42116,42117,42118,42119"},{"Code":"3673050","Parent":"3673","Name":"TAKTAKAN","Latitude":"-6.1285070260128","Longitude":"106.10705500023","Postal":"42145,42146,42147,42148,42149,42162"},{"Code":"3673060","Parent":"3673","Name":"KASEMEN","Latitude":"-6.0425001120082","Longitude":"106.18083458065","Postal":"42141,42142,42143,42144,42191"}]