[{"Code":"5103010","Parent":"5103","Name":"KUTA SELATAN","Latitude":"-8.8007748455135","Longitude":"115.16205255518","Postal":"80363,80362"},{"Code":"5103020","Parent":"5103","Name":"KUTA","Latitude":"-8.7263807465086","Longitude":"115.17165148561","Postal":"80361"},{"Code":"5103030","Parent":"5103","Name":"KUTA UTARA","Latitude":"-8.6429084684737","Longitude":"115.15238281166","Postal":"80365,80363"},{"Code":"5103040","Parent":"5103","Name":"MENGWI","Latitude":"-8.5480359580021","Longitude":"115.15449655403","Postal":"80351"},{"Code":"5103050","Parent":"5103","Name":"ABIANSEMAL","Latitude":"-8.5289823209957","Longitude":"115.22201638993","Postal":"80352"},{"Code":"5103060","Parent":"5103","Name":"PETANG","Latitude":"-8.3547206665083","Longitude":"115.2172492221","Postal":"80353"}]