[{"Code":"5204020","Parent":"5204","Name":"LUNYUK","Latitude":"-8.9594570765018","Longitude":"117.19955437703","Postal":"84373"},{"Code":"5204021","Parent":"5204","Name":"ORONG TELU","Latitude":"-8.7816817544889","Longitude":"117.17166748035","Postal":"84374"},{"Code":"5204050","Parent":"5204","Name":"ALAS","Latitude":"-8.5740945189942","Longitude":"117.03765189393","Postal":"84353,84351"},{"Code":"5204051","Parent":"5204","Name":"ALAS BARAT","Latitude":"-8.5190079265025","Longitude":"116.91920269553","Postal":"84363,84354"},{"Code":"5204052","Parent":"5204","Name":"BUER","Latitude":"-8.4808571065011","Longitude":"117.07783879451","Postal":"84364,84355"},{"Code":"5204061","Parent":"5204","Name":"UTAN","Latitude":"-8.4451945634806","Longitude":"117.13649312874","Postal":"84359,84352,84351"},{"Code":"5204062","Parent":"5204","Name":"RHEE","Latitude":"-8.4900384405027","Longitude":"117.22758803204","Postal":"84362,84352"},{"Code":"5204070","Parent":"5204","Name":"BATULANTEH","Latitude":"-8.6209486325003","Longitude":"117.20289752651","Postal":"84361"},{"Code":"5204080","Parent":"5204","Name":"SUMBAWA","Latitude":"-8.4645383184876","Longitude":"117.42577240133","Postal":"84311,84312,84313,84314,84315,84316,84317,84318"},{"Code":"5204081","Parent":"5204","Name":"LABUHAN BADAS","Latitude":"-8.3304923235013","Longitude":"117.49086644852","Postal":"84351,84316"},{"Code":"5204082","Parent":"5204","Name":"UNTER IWES","Latitude":"-8.5414009319766","Longitude":"117.39753563318","Postal":"84359,84352,84310"},{"Code":"5204090","Parent":"5204","Name":"MOYOHILIR","Latitude":"-8.5018759045082","Longitude":"117.54173845561","Postal":"84381"},{"Code":"5204091","Parent":"5204","Name":"MOYO UTARA","Latitude":"-8.4464921959891","Longitude":"117.49725218236","Postal":"84388,84389,84380"},{"Code":"5204100","Parent":"5204","Name":"MOYOHULU","Latitude":"-8.6320816974965","Longitude":"117.38263015945","Postal":"84371"},{"Code":"5204110","Parent":"5204","Name":"ROPANG","Latitude":"-8.9130625625071","Longitude":"117.51290012409","Postal":"84376,84375"},{"Code":"5204111","Parent":"5204","Name":"LENANGGUAR","Latitude":"-8.8667137609955","Longitude":"117.36845878844","Postal":"84372,84370"},{"Code":"5204112","Parent":"5204","Name":"LANTUNG","Latitude":"-8.7721821945047","Longitude":"117.51999816657","Postal":"84375,84372"},{"Code":"5204121","Parent":"5204","Name":"LAPE","Latitude":"-8.5653687810057","Longitude":"117.67996418808","Postal":"84382"},{"Code":"5204122","Parent":"5204","Name":"LOPOK","Latitude":"-8.6434154335164","Longitude":"117.54498673023","Postal":"84388,84389"},{"Code":"5204130","Parent":"5204","Name":"PLAMPANG","Latitude":"-8.7754187545017","Longitude":"117.77805763802","Postal":"84383,84386"},{"Code":"5204131","Parent":"5204","Name":"LABANGKA","Latitude":"-8.897797306505","Longitude":"117.74855087556","Postal":"84387,84383"},{"Code":"5204132","Parent":"5204","Name":"MARONGE","Latitude":"-8.7116522830054","Longitude":"117.70811442307","Postal":"84386,84387"},{"Code":"5204140","Parent":"5204","Name":"EMPANG","Latitude":"-8.8133957500001","Longitude":"118.017792675","Postal":"84384"},{"Code":"5204141","Parent":"5204","Name":"TARANO","Latitude":"-8.7444181384939","Longitude":"118.13029068642","Postal":"84385"}]