[{"Code":"5207010","Parent":"5207","Name":"SEKONGKANG","Latitude":"-9.0188842834975","Longitude":"116.88542938847","Postal":"84457"},{"Code":"5207020","Parent":"5207","Name":"JEREWEH","Latitude":"-8.9363037860002","Longitude":"116.9106750515","Postal":"84456"},{"Code":"5207021","Parent":"5207","Name":"MALUK","Latitude":"-8.9113229850036","Longitude":"116.76193987756","Postal":"84459"},{"Code":"5207030","Parent":"5207","Name":"TALIWANG","Latitude":"-8.7372733564999","Longitude":"116.817648564","Postal":"84411,84412,84413,84414,84415,84416,84419,84452"},{"Code":"5207031","Parent":"5207","Name":"BRANG ENE","Latitude":"-8.8345282970078","Longitude":"116.94498953461","Postal":"84455"},{"Code":"5207040","Parent":"5207","Name":"BRANG REA","Latitude":"-8.711463245989","Longitude":"116.98692825535","Postal":"84458,84455"},{"Code":"5207050","Parent":"5207","Name":"SETELUK","Latitude":"-8.6378030444914","Longitude":"116.87366932889","Postal":"84454,84453"},{"Code":"5207051","Parent":"5207","Name":"POTO TANO","Latitude":"-8.5881437415002","Longitude":"116.828006292","Postal":"84453,84454"}]