[{"Code":"5208010","Parent":"5208","Name":"PEMENANG","Latitude":"-8.4056678800071","Longitude":"116.08118803309","Postal":"83756,83352"},{"Code":"5208020","Parent":"5208","Name":"TANJUNG","Latitude":"-8.4111891814999","Longitude":"116.1890702345","Postal":"83711,83712,83713,83714,83715,83716,83717,83350"},{"Code":"5208030","Parent":"5208","Name":"GANGGA","Latitude":"-8.3538177560081","Longitude":"116.25315267961","Postal":"83753,83353"},{"Code":"5208040","Parent":"5208","Name":"KAYANGAN","Latitude":"-8.3171014075016","Longitude":"116.29980807252","Postal":"83755,83356"},{"Code":"5208050","Parent":"5208","Name":"BAYAN","Latitude":"-8.322447185502","Longitude":"116.40548349603","Postal":"83754,83354"}]