[{"Code":"5271010","Parent":"5271","Name":"AMPENAN","Latitude":"-8.5703573892064","Longitude":"116.08640279134","Postal":"83111,83112,83113,83114,83118,83511"},{"Code":"5271011","Parent":"5271","Name":"SEKARBELA","Latitude":"-8.6049927393924","Longitude":"116.08807879359","Postal":"83115,83116"},{"Code":"5271020","Parent":"5271","Name":"MATARAM","Latitude":"-8.6028035484743","Longitude":"116.11027690513","Postal":"83131,83132,83133,83134,83135,83136,83137,83117,83127"},{"Code":"5271021","Parent":"5271","Name":"SELAPARANG","Latitude":"-8.5720284862268","Longitude":"116.10932905479","Postal":"83126"},{"Code":"5271030","Parent":"5271","Name":"CAKRANEGARA","Latitude":"-8.5826836878213","Longitude":"116.13040284909","Postal":"83231,83234,83235,83238,83239"},{"Code":"5271031","Parent":"5271","Name":"SANDUBAYA","Latitude":"-8.5951166609632","Longitude":"116.14475116599","Postal":"83242,83243,83244,83246,83247,83232,83237"}]