[{"Code":"5272010","Parent":"5272","Name":"RASANAE BARAT","Latitude":"-8.4720038163923","Longitude":"118.72496129998","Postal":"84116,84117,84118,84111,84119"},{"Code":"5272011","Parent":"5272","Name":"MPUNDA","Latitude":"-8.4732197289397","Longitude":"118.74492957865","Postal":"84111,84112,84115,84119"},{"Code":"5272020","Parent":"5272","Name":"RASANAE TIMUR","Latitude":"-8.492679419497","Longitude":"118.82532123246","Postal":"84121,84122,84123,84124,84125,84127,84114,84119"},{"Code":"5272021","Parent":"5272","Name":"RABA","Latitude":"-8.4644605040208","Longitude":"118.80650333629","Postal":"84131,84132,84133,84134,84135,84136,84137,84138,84139,84113,84119"},{"Code":"5272030","Parent":"5272","Name":"ASAKOTA","Latitude":"-8.4011135729617","Longitude":"118.75080756045","Postal":"84141,84142,84143,84144,84119"}]