[{"Code":"5301021","Parent":"5301","Name":"LAMBOYA","Latitude":"-9.7065423319729","Longitude":"119.35539505717","Postal":"87271"},{"Code":"5301022","Parent":"5301","Name":"WANOKAKA","Latitude":"-9.7273024315145","Longitude":"119.45865260918","Postal":"87272"},{"Code":"5301023","Parent":"5301","Name":"LABOYA BARAT","Latitude":"-9.704119803979","Longitude":"119.23622174375","Postal":"87273,87270"},{"Code":"5301050","Parent":"5301","Name":"LOLI","Latitude":"-9.6060686214996","Longitude":"119.4211561485","Postal":"87284"},{"Code":"5301060","Parent":"5301","Name":"KOTA WAIKABUBAK","Latitude":"-9.6250894525508","Longitude":"119.44439454213","Postal":"87211,87212,87213,87214,87215,87216,87217,87219"},{"Code":"5301072","Parent":"5301","Name":"TANA RIGHU","Latitude":"-9.4679446509865","Longitude":"119.42553735383","Postal":"87257"}]