[{"Code":"5307010","Parent":"5307","Name":"PANTAR","Latitude":"-8.2542690294907","Longitude":"124.24135788987","Postal":"85881"},{"Code":"5307011","Parent":"5307","Name":"PANTAR BARAT","Latitude":"-8.3193729889811","Longitude":"124.06079233672","Postal":"85882,85880"},{"Code":"5307012","Parent":"5307","Name":"PANTAR TIMUR","Latitude":"-8.3509662090076","Longitude":"124.23423148261","Postal":"85885,85884"},{"Code":"5307013","Parent":"5307","Name":"PANTAR BARAT LAUT","Latitude":"-8.3816672930006","Longitude":"123.93003689551","Postal":"85882"},{"Code":"5307014","Parent":"5307","Name":"PANTAR TENGAH","Latitude":"-8.4338683924949","Longitude":"124.12480590143","Postal":"85884,85883"},{"Code":"5307020","Parent":"5307","Name":"ALOR BARAT DAYA","Latitude":"-8.3513864975096","Longitude":"124.46270532815","Postal":"85861"},{"Code":"5307021","Parent":"5307","Name":"MATARU","Latitude":"-8.3666862834843","Longitude":"124.63749069277","Postal":"85862,85860"},{"Code":"5307030","Parent":"5307","Name":"ALOR SELATAN","Latitude":"-8.3251376229952","Longitude":"124.70885489193","Postal":"85871"},{"Code":"5307040","Parent":"5307","Name":"ALOR TIMUR","Latitude":"-8.2484140190042","Longitude":"124.99827659056","Postal":"85872"},{"Code":"5307041","Parent":"5307","Name":"ALOR TIMUR LAUT","Latitude":"-8.2240003654802","Longitude":"124.79944408219","Postal":"85874,85873"},{"Code":"5307042","Parent":"5307","Name":"PUREMAN","Latitude":"-8.340253174487","Longitude":"124.89105500931","Postal":"85873,85874"},{"Code":"5307050","Parent":"5307","Name":"TELUK MUTIARA","Latitude":"-8.2333743040236","Longitude":"124.53208395886","Postal":"85811,85812,85813,85814,85815,85816,85817,85818,85819"},{"Code":"5307051","Parent":"5307","Name":"KABOLA","Latitude":"-8.1601071914918","Longitude":"124.55477354038","Postal":"85852,85819,85851"},{"Code":"5307060","Parent":"5307","Name":"ALOR BARAT LAUT","Latitude":"-8.2028093635033","Longitude":"124.44196916355","Postal":"85851"},{"Code":"5307061","Parent":"5307","Name":"ALOR TENGAH UTARA","Latitude":"-8.2347117364775","Longitude":"124.63136694215","Postal":"85875,85870"},{"Code":"5307062","Parent":"5307","Name":"PULAU PURA","Latitude":"-8.3006092238768","Longitude":"124.34559797416","Postal":"85853,85850"},{"Code":"5307063","Parent":"5307","Name":"LEMBUR","Latitude":"-8.2040930904584","Longitude":"124.71436581686","Postal":"85876,85875"}]