[{"Code":"5314010","Parent":"5314","Name":"ROTE BARAT DAYA","Latitude":"-10.902903663982","Longitude":"122.9465623273","Postal":"85982"},{"Code":"5314020","Parent":"5314","Name":"ROTE BARAT LAUT","Latitude":"-10.796344427509","Longitude":"122.92834729511","Postal":"85981"},{"Code":"5314030","Parent":"5314","Name":"LOBALAIN","Latitude":"-10.792146563991","Longitude":"123.08538828089","Postal":"85911,85912,85918"},{"Code":"5314040","Parent":"5314","Name":"ROTE TENGAH","Latitude":"-10.700910825998","Longitude":"123.14750032098","Postal":"85972,85971"},{"Code":"5314041","Parent":"5314","Name":"ROTE SELATAN","Latitude":"-10.789270110044","Longitude":"123.194855432","Postal":"85972"},{"Code":"5314050","Parent":"5314","Name":"PANTAI BARU","Latitude":"-10.678799124463","Longitude":"123.25511504357","Postal":"85973"},{"Code":"5314060","Parent":"5314","Name":"ROTE TIMUR","Latitude":"-10.634902822027","Longitude":"123.36614894281","Postal":"85974,85975"},{"Code":"5314061","Parent":"5314","Name":"LANDU LEKO","Latitude":"-10.517111766005","Longitude":"123.32775115506","Postal":"85975,85974"},{"Code":"5314070","Parent":"5314","Name":"ROTE BARAT","Latitude":"-10.861533165048","Longitude":"122.85522761703","Postal":"85983,85981,85982"},{"Code":"5314071","Parent":"5314","Name":"NDAO NUSE","Latitude":"-10.803953169975","Longitude":"122.71342849622","Postal":"85984,85983"}]