[{"Code":"5317010","Parent":"5317","Name":"KODI BANGEDO","Latitude":"-9.5983270750028","Longitude":"119.04935606304","Postal":"87462,87264"},{"Code":"5317011","Parent":"5317","Name":"KODI BALAGHAR","Latitude":"-9.6640025339988","Longitude":"119.07761436699","Postal":"87262"},{"Code":"5317020","Parent":"5317","Name":"KODI","Latitude":"-9.5604706400487","Longitude":"118.99137568361","Postal":"87461,87261"},{"Code":"5317030","Parent":"5317","Name":"KODI UTARA","Latitude":"-9.4885541770105","Longitude":"119.05047867914","Postal":"87464,87260"},{"Code":"5317040","Parent":"5317","Name":"WEWEWA SELATAN","Latitude":"-9.6066468729942","Longitude":"119.18407638994","Postal":"87463,87263"},{"Code":"5317050","Parent":"5317","Name":"WEWEWA BARAT","Latitude":"-9.4928723959788","Longitude":"119.19131641223","Postal":"87453,87253"},{"Code":"5317060","Parent":"5317","Name":"WEWEWA TIMUR","Latitude":"-9.616232409473","Longitude":"119.31351857416","Postal":"87452,87250"},{"Code":"5317061","Parent":"5317","Name":"WEWEWA TENGAH","Latitude":"-9.5292943500158","Longitude":"119.29882307319","Postal":"87252"},{"Code":"5317070","Parent":"5317","Name":"WEWEWA UTARA","Latitude":"-9.5038362865177","Longitude":"119.36158575822","Postal":"87455,87251"},{"Code":"5317080","Parent":"5317","Name":"LOURA","Latitude":"-9.4254271519908","Longitude":"119.26672531438","Postal":"87415,87416,87254"},{"Code":"5317081","Parent":"5317","Name":"KOTA TAMBOLAKA","Latitude":"-9.4297076684849","Longitude":"119.18997443731","Postal":"87255"}]