[{"Code":"6106010","Parent":"6106","Name":"KENDAWANGAN","Latitude":"-2.5786607114999","Longitude":"110.519850261","Postal":"78862"},{"Code":"6106020","Parent":"6106","Name":"MANIS MATA","Latitude":"-2.4482348975","Longitude":"110.9850427815","Postal":"78865,78864"},{"Code":"6106030","Parent":"6106","Name":"MARAU","Latitude":"-2.126016064","Longitude":"110.6626926505","Postal":"78863,78865"},{"Code":"6106031","Parent":"6106","Name":"SINGKUP","Latitude":"-2.3560927344999","Longitude":"110.575810663","Postal":"78866"},{"Code":"6106032","Parent":"6106","Name":"AIR UPAS","Latitude":"-2.3993994864999","Longitude":"110.7830059905","Postal":"78865,78864,78861,78863"},{"Code":"6106040","Parent":"6106","Name":"JELAI HULU","Latitude":"-1.93097822","Longitude":"110.869397479","Postal":"78876,78873"},{"Code":"6106050","Parent":"6106","Name":"TUMBANG TITI","Latitude":"-1.8036685124999","Longitude":"110.6870339695","Postal":"78874,78877"},{"Code":"6106051","Parent":"6106","Name":"PEMAHAN","Latitude":"-1.7031766060001","Longitude":"110.54600436551","Postal":"78875,78874"},{"Code":"6106052","Parent":"6106","Name":"SUNGAI MELAYU RAYAK","Latitude":"-1.8537669629998","Longitude":"110.4371748825","Postal":"78881,78875"},{"Code":"6106060","Parent":"6106","Name":"MATAN HILIR SELATAN","Latitude":"-2.0501365359999","Longitude":"110.2179271475","Postal":"78865,78861,78822"},{"Code":"6106061","Parent":"6106","Name":"BENUA KAYONG","Latitude":"-1.7710650239999","Longitude":"110.1485274845","Postal":"78821,78822"},{"Code":"6106070","Parent":"6106","Name":"MATAN HILIR UTARA","Latitude":"-1.4814560719997","Longitude":"110.15936935799","Postal":"78816,78813"},{"Code":"6106071","Parent":"6106","Name":"DELTA PAWAN","Latitude":"-1.8129947774986","Longitude":"109.96147929991","Postal":"78811,78812,78813,78814,78815"},{"Code":"6106072","Parent":"6106","Name":"MUARA PAWAN","Latitude":"-1.7465571539999","Longitude":"110.1167590555","Postal":"78817,78810"},{"Code":"6106090","Parent":"6106","Name":"NANGA TAYAP","Latitude":"-1.4606725","Longitude":"110.592955492","Postal":"78876,78873"},{"Code":"6106100","Parent":"6106","Name":"SANDAI","Latitude":"-1.1616599294999","Longitude":"110.6173387845","Postal":"78871,78870"},{"Code":"6106101","Parent":"6106","Name":"HULU SUNGAI","Latitude":"-1.0209171555","Longitude":"110.9676441655","Postal":"78878,78871"},{"Code":"6106110","Parent":"6106","Name":"SUNGAI LAUR","Latitude":"-0.85264361049998","Longitude":"110.5462463685","Postal":"78872"},{"Code":"6106120","Parent":"6106","Name":"SIMPANG HULU","Latitude":"-0.54012099949994","Longitude":"110.2136227805","Postal":"78877,78850"},{"Code":"6106121","Parent":"6106","Name":"SIMPANG DUA","Latitude":"-0.75274169799996","Longitude":"110.2110242655","Postal":"78879,78854"}]