[{"Code":"6107060","Parent":"6107","Name":"SERAWAI","Latitude":"-0.36342091249997","Longitude":"112.620174837","Postal":"78683"},{"Code":"6107070","Parent":"6107","Name":"AMBALAU","Latitude":"-0.13374873549997","Longitude":"112.9558426395","Postal":"78684"},{"Code":"6107080","Parent":"6107","Name":"KAYAN HULU","Latitude":"-0.080728667499955","Longitude":"112.2408484745","Postal":"78694"},{"Code":"6107110","Parent":"6107","Name":"SEPAUK","Latitude":"-0.12166503599993","Longitude":"111.1991303405","Postal":"78662"},{"Code":"6107120","Parent":"6107","Name":"TEMPUNAK","Latitude":"-0.13356563649992","Longitude":"111.333607029","Postal":"78661"},{"Code":"6107130","Parent":"6107","Name":"SUNGAI TEBELIAN","Latitude":"-0.15292507349998","Longitude":"111.5005355835","Postal":"78655"},{"Code":"6107140","Parent":"6107","Name":"SINTANG","Latitude":"0.060602693500051","Longitude":"111.49134753749","Postal":"78611,78612,78613,78614,78615,78616,78617,78618,78619"},{"Code":"6107150","Parent":"6107","Name":"DEDAI","Latitude":"-0.051216909499966","Longitude":"111.729034772","Postal":"78691"},{"Code":"6107160","Parent":"6107","Name":"KAYAN HILIR","Latitude":"-0.012138656499988","Longitude":"111.905801598","Postal":"78693"},{"Code":"6107170","Parent":"6107","Name":"KELAM PERMAI","Latitude":"0.17327384700005","Longitude":"111.778117406","Postal":"78656"},{"Code":"6107180","Parent":"6107","Name":"BINJAI HULU","Latitude":"0.20810814150007","Longitude":"111.4784062815","Postal":"78651,78663"},{"Code":"6107190","Parent":"6107","Name":"KETUNGAU HILIR","Latitude":"0.44642749900003","Longitude":"111.4790253425","Postal":"78652"},{"Code":"6107200","Parent":"6107","Name":"KETUNGAU TENGAH","Latitude":"0.73860384900004","Longitude":"111.4577797985","Postal":"78653"},{"Code":"6107210","Parent":"6107","Name":"KETUNGAU HULU","Latitude":"0.86769084200005","Longitude":"111.068143601","Postal":"78654"}]