[{"Code":"6111010","Parent":"6111","Name":"PULAU MAYA","Latitude":"-1.128610849","Longitude":"109.512886253","Postal":"78858"},{"Code":"6111011","Parent":"6111","Name":"KEPULAUAN KARIMATA","Latitude":"-1.4626231434999","Longitude":"109.0335770125","Postal":"78855"},{"Code":"6111020","Parent":"6111","Name":"SUKADANA","Latitude":"-1.259483074","Longitude":"110.05286249351","Postal":"78852"},{"Code":"6111030","Parent":"6111","Name":"SIMPANG HILIR","Latitude":"-1.0419240644999","Longitude":"110.137129817","Postal":"78853"},{"Code":"6111040","Parent":"6111","Name":"TELUK BATANG","Latitude":"-0.97561660749986","Longitude":"109.832331253","Postal":"78856"},{"Code":"6111050","Parent":"6111","Name":"SEPONTI","Latitude":"-0.84352243549994","Longitude":"109.921977902","Postal":"78857"}]