[{"Code":"6202020","Parent":"6202","Name":"MENTAYA HILIR SELATAN","Latitude":"-2.8679779535019","Longitude":"112.92313460607","Postal":"74363"},{"Code":"6202021","Parent":"6202","Name":"TELUK SAMPIT","Latitude":"-3.0902795880002","Longitude":"112.9259917935","Postal":"74364"},{"Code":"6202050","Parent":"6202","Name":"PULAU HANAUT","Latitude":"-2.8872280549995","Longitude":"113.04031689749","Postal":"74362"},{"Code":"6202060","Parent":"6202","Name":"MENTAWA BARU/KETAPANG","Latitude":"-2.6201515199999","Longitude":"112.82297785349","Postal":"74322,74323,74325,74326,74327,74328,74329,74321"},{"Code":"6202061","Parent":"6202","Name":"SERANAU","Latitude":"-2.5355224914997","Longitude":"113.07513658949","Postal":"74364,74314,74324"},{"Code":"6202070","Parent":"6202","Name":"MENTAYA HILIR UTARA","Latitude":"-2.677374294","Longitude":"112.7107456425","Postal":"74361"},{"Code":"6202110","Parent":"6202","Name":"KOTA BESI","Latitude":"-2.3272083949998","Longitude":"112.82987383949","Postal":"74353"},{"Code":"6202111","Parent":"6202","Name":"TELAWANG","Latitude":"-2.3265258274999","Longitude":"112.6443516955","Postal":"74355,74352,74350"},{"Code":"6202120","Parent":"6202","Name":"BAAMANG","Latitude":"-2.4766333345004","Longitude":"112.76405256452","Postal":"74311,74312,74313,74314,74315,74316"},{"Code":"6202190","Parent":"6202","Name":"CEMPAGA","Latitude":"-2.2617060939998","Longitude":"113.02087627549","Postal":"74354"},{"Code":"6202191","Parent":"6202","Name":"CEMPAGA HULU","Latitude":"-1.929158774","Longitude":"113.062034865","Postal":"74341,74359"},{"Code":"6202200","Parent":"6202","Name":"PARENGGEAN","Latitude":"-2.0487980659999","Longitude":"112.793889738","Postal":"74355,74352"},{"Code":"6202201","Parent":"6202","Name":"TUALAN HULU","Latitude":"-1.6752878584998","Longitude":"112.79102194899","Postal":"74342,74358"},{"Code":"6202210","Parent":"6202","Name":"MENTAYA HULU","Latitude":"-2.0629420629999","Longitude":"112.5130347605","Postal":"74356,74357"},{"Code":"6202211","Parent":"6202","Name":"BUKIT SANTUAI","Latitude":"-1.7345002135","Longitude":"112.2992748815","Postal":"74357,74356"},{"Code":"6202230","Parent":"6202","Name":"ANTANG KALANG","Latitude":"-1.3946154629999","Longitude":"112.5794656845","Postal":"74344,74352"},{"Code":"6202231","Parent":"6202","Name":"TELAGA ANTANG","Latitude":"-1.5664410669999","Longitude":"112.4323136195","Postal":"74343,74352,74356"}]