[{"Code":"6203020","Parent":"6203","Name":"KAPUAS KUALA","Latitude":"-3.3472957100007","Longitude":"114.29474724803","Postal":"73583"},{"Code":"6203021","Parent":"6203","Name":"TAMBAN CATUR","Latitude":"-3.2240821620012","Longitude":"114.36534175404","Postal":"73582"},{"Code":"6203030","Parent":"6203","Name":"KAPUAS TIMUR","Latitude":"-3.0867787989979","Longitude":"114.46705133743","Postal":"73581"},{"Code":"6203040","Parent":"6203","Name":"SELAT","Latitude":"-2.9933367595017","Longitude":"114.37307725207","Postal":"73511,73513,73514,73515,73516"},{"Code":"6203041","Parent":"6203","Name":"BATAGUH","Latitude":"-3.2104607124998","Longitude":"114.278670548","Postal":"73516"},{"Code":"6203070","Parent":"6203","Name":"BASARANG","Latitude":"-2.9591718384991","Longitude":"114.30248200796","Postal":"73564"},{"Code":"6203080","Parent":"6203","Name":"KAPUAS HILIR","Latitude":"-2.9893649375001","Longitude":"114.45436461451","Postal":"73521,73522,73523,73524,73525,73526,73527,73528"},{"Code":"6203090","Parent":"6203","Name":"PULAU PETAK","Latitude":"-2.9118264994976","Longitude":"114.4868356504","Postal":"73592"},{"Code":"6203100","Parent":"6203","Name":"KAPUAS MURUNG","Latitude":"-2.7373030620001","Longitude":"114.628386046","Postal":"73593,73594"},{"Code":"6203101","Parent":"6203","Name":"DADAHUP","Latitude":"-2.6200165265007","Longitude":"114.63647360103","Postal":"73593"},{"Code":"6203110","Parent":"6203","Name":"KAPUAS BARAT","Latitude":"-2.8207311420005","Longitude":"114.39686592502","Postal":"73552"},{"Code":"6203150","Parent":"6203","Name":"MANTANGAI","Latitude":"-1.9000211729999","Longitude":"114.343730704","Postal":"73553"},{"Code":"6203160","Parent":"6203","Name":"TIMPAH","Latitude":"-1.5846014689999","Longitude":"114.530067648","Postal":"73554"},{"Code":"6203170","Parent":"6203","Name":"KAPUAS TENGAH","Latitude":"-1.185373131","Longitude":"114.351019548","Postal":"73555"},{"Code":"6203171","Parent":"6203","Name":"PASAK TALAWANG","Latitude":"-1.0306413075","Longitude":"114.1403496975","Postal":"73557"},{"Code":"6203180","Parent":"6203","Name":"KAPUAS HULU","Latitude":"-0.75428511699996","Longitude":"113.9170140095","Postal":"73556,74581"},{"Code":"6203181","Parent":"6203","Name":"MANDAU TALAWANG","Latitude":"-0.61613035299992","Longitude":"114.007459179","Postal":"73556"}]