[{"Code":"6205010","Parent":"6205","Name":"MONTALLAT","Latitude":"-1.2435596050001","Longitude":"114.83602909101","Postal":"73861"},{"Code":"6205020","Parent":"6205","Name":"GUNUNG TIMANG","Latitude":"-1.2452767514999","Longitude":"115.1946176565","Postal":"73862"},{"Code":"6205030","Parent":"6205","Name":"GUNUNG PUREI","Latitude":"-1.209883925","Longitude":"115.6501235295","Postal":"73871"},{"Code":"6205040","Parent":"6205","Name":"TEWEH TIMUR","Latitude":"-1.0560965664999","Longitude":"115.4187501285","Postal":"73881"},{"Code":"6205050","Parent":"6205","Name":"TEWEH TENGAH","Latitude":"-0.96622204349995","Longitude":"114.698299263","Postal":"73811,73812,73814"},{"Code":"6205051","Parent":"6205","Name":"TEWEH  BARU","Latitude":"-1.025130072","Longitude":"115.0514777045","Postal":"73814,73881"},{"Code":"6205052","Parent":"6205","Name":"TEWEH SELATAN","Latitude":"-1.0762900885","Longitude":"114.93081945401","Postal":"73814"},{"Code":"6205060","Parent":"6205","Name":"LAHEI","Latitude":"-0.47723047999997","Longitude":"115.1562906185","Postal":"73852"},{"Code":"6205061","Parent":"6205","Name":"LAHEI BARAT","Latitude":"-0.70572020649994","Longitude":"114.8688170455","Postal":"73853"}]