[{"Code":"6208010","Parent":"6208","Name":"SERUYAN HILIR","Latitude":"-3.0897077699999","Longitude":"112.303568323","Postal":"74211,74212,74213,74214,74219,74215"},{"Code":"6208011","Parent":"6208","Name":"SERUYAN HILIR TIMUR","Latitude":"-3.1083795049998","Longitude":"112.667246559","Postal":"74251,74215"},{"Code":"6208020","Parent":"6208","Name":"DANAU SEMBULUH","Latitude":"-2.7268860799996","Longitude":"112.23027497049","Postal":"74261"},{"Code":"6208021","Parent":"6208","Name":"SERUYAN RAYA","Latitude":"-2.5215525699998","Longitude":"112.4113790485","Postal":"74263,74260"},{"Code":"6208030","Parent":"6208","Name":"HANAU","Latitude":"-2.5213237829997","Longitude":"112.14347415549","Postal":"74265,74264,74270"},{"Code":"6208031","Parent":"6208","Name":"DANAU SELULUK","Latitude":"-2.3699163735001","Longitude":"112.22694585451","Postal":"74265,74271"},{"Code":"6208040","Parent":"6208","Name":"SERUYAN TENGAH","Latitude":"-1.8819625274998","Longitude":"112.0904137925","Postal":"74281,74283,74280"},{"Code":"6208041","Parent":"6208","Name":"BATU AMPAR","Latitude":"-2.2472891284999","Longitude":"112.1782826375","Postal":"74284,74281"},{"Code":"6208050","Parent":"6208","Name":"SERUYAN HULU","Latitude":"-1.138528428","Longitude":"111.871688585","Postal":"74282,74291,74292"},{"Code":"6208051","Parent":"6208","Name":"SULING TAMBUN","Latitude":"-1.300729055","Longitude":"111.620955141","Postal":"74292,74293,74290"}]