[{"Code":"6210010","Parent":"6210","Name":"KAHAYAN KUALA","Latitude":"-3.2724807415","Longitude":"113.954379045","Postal":"74872"},{"Code":"6210011","Parent":"6210","Name":"SEBANGAU KUALA","Latitude":"-2.902407595","Longitude":"113.8598006665","Postal":"74874"},{"Code":"6210020","Parent":"6210","Name":"PANDIH BATU","Latitude":"-3.0788555649994","Longitude":"114.10901584748","Postal":"74871"},{"Code":"6210030","Parent":"6210","Name":"MALIKU","Latitude":"-2.9760012219998","Longitude":"114.16087880449","Postal":"74873"},{"Code":"6210040","Parent":"6210","Name":"KAHAYAN HILIR","Latitude":"-2.7840538400005","Longitude":"114.19678717002","Postal":"74811,74861"},{"Code":"6210041","Parent":"6210","Name":"JABIREN RAYA","Latitude":"-2.4369304085001","Longitude":"114.179660771","Postal":"74861,74816"},{"Code":"6210050","Parent":"6210","Name":"KAHAYAN TENGAH","Latitude":"-2.009301811","Longitude":"113.975860397","Postal":"74862"},{"Code":"6210060","Parent":"6210","Name":"BANAMA TINGANG","Latitude":"-1.7050604585","Longitude":"113.8982687225","Postal":"74863"}]