[{"Code":"6271010","Parent":"6271","Name":"PAHANDUT","Latitude":"-2.2094262859986","Longitude":"113.94842159893","Postal":"73111"},{"Code":"6271011","Parent":"6271","Name":"SABANGAU","Latitude":"-2.283750788","Longitude":"113.912802126","Postal":"73113,73114"},{"Code":"6271012","Parent":"6271","Name":"JEKAN RAYA","Latitude":"-2.1911487595001","Longitude":"113.812224747","Postal":"73112,73111,73118"},{"Code":"6271020","Parent":"6271","Name":"BUKIT BATU","Latitude":"-2.0054922109998","Longitude":"113.73421750349","Postal":"73221,73222,73223,73224,73225,73226"},{"Code":"6271021","Parent":"6271","Name":"RAKUMPIT","Latitude":"-1.7692902325","Longitude":"113.6546031995","Postal":"73227,73229"}]