[{"Code":"6310010","Parent":"6310","Name":"KUSAN HILIR","Latitude":"-3.5376112690007","Longitude":"115.89360955153","Postal":"72276,72273"},{"Code":"6310020","Parent":"6310","Name":"SUNGAI LOBAN","Latitude":"-3.6445733019989","Longitude":"115.74047904246","Postal":"72271,72275,72274"},{"Code":"6310030","Parent":"6310","Name":"SATUI","Latitude":"-3.6763923695002","Longitude":"115.44890854051","Postal":"72272,72275,72276"},{"Code":"6310031","Parent":"6310","Name":"ANGSANA","Latitude":"-3.6919331419977","Longitude":"115.60246543742","Postal":"72276,72273,72275"},{"Code":"6310040","Parent":"6310","Name":"KUSAN HULU","Latitude":"-3.3386789125001","Longitude":"115.6127365275","Postal":"72272,72275,72270"},{"Code":"6310041","Parent":"6310","Name":"KURANJI","Latitude":"-3.528854335004","Longitude":"115.71173837412","Postal":"72277,72272,72274"},{"Code":"6310050","Parent":"6310","Name":"BATU LICIN","Latitude":"-3.4505631740017","Longitude":"115.93014918706","Postal":"72211,72273"},{"Code":"6310051","Parent":"6310","Name":"KARANG BINTANG","Latitude":"-3.3625284404987","Longitude":"115.87178936795","Postal":"72278,72210"},{"Code":"6310052","Parent":"6310","Name":"SIMPANG EMPAT","Latitude":"-3.2974862364999","Longitude":"115.9699497085","Postal":"72221,72211,72213"},{"Code":"6310053","Parent":"6310","Name":"MANTEWE","Latitude":"-3.1854029629999","Longitude":"115.6913688935","Postal":"72271,72274,72211"}]