[{"Code":"6401010","Parent":"6401","Name":"BATU SOPANG","Latitude":"-1.6856231560001","Longitude":"115.89544529751","Postal":"76252"},{"Code":"6401011","Parent":"6401","Name":"MUARA SAMU","Latitude":"-2.1491095839999","Longitude":"115.857663529","Postal":"76272,76250"},{"Code":"6401021","Parent":"6401","Name":"BATU ENGAU","Latitude":"-2.1856513545","Longitude":"116.1654999325","Postal":"76262,76261"},{"Code":"6401022","Parent":"6401","Name":"TANJUNG HARAPAN","Latitude":"-2.2189825274998","Longitude":"116.46695928799","Postal":"76261,76260"},{"Code":"6401030","Parent":"6401","Name":"PASIR BELENGKONG","Latitude":"-1.9673923399999","Longitude":"116.2275645625","Postal":"76271"},{"Code":"6401040","Parent":"6401","Name":"TANAH GROGOT","Latitude":"-1.9220496984998","Longitude":"116.29490878399","Postal":"76211,76212,76213,76214,76215,76219,76251"},{"Code":"6401050","Parent":"6401","Name":"KUARO","Latitude":"-1.7761624834999","Longitude":"116.2235983735","Postal":"76281"},{"Code":"6401060","Parent":"6401","Name":"LONG IKIS","Latitude":"-1.545407418","Longitude":"116.1951732705","Postal":"76282"},{"Code":"6401070","Parent":"6401","Name":"MUARA KOMAM","Latitude":"-1.4810467574999","Longitude":"115.806294542","Postal":"76253"},{"Code":"6401080","Parent":"6401","Name":"LONG KALI","Latitude":"-1.322555834","Longitude":"116.177441993","Postal":"76282,76283"}]