[{"Code":"6403010","Parent":"6403","Name":"SEMBOJA","Latitude":"-0.99255605099988","Longitude":"117.04341995449","Postal":"75592,75516,75271,75279"},{"Code":"6403020","Parent":"6403","Name":"MUARA JAWA","Latitude":"-0.79502349999987","Longitude":"117.20202199999","Postal":"75593,75261,75267"},{"Code":"6403030","Parent":"6403","Name":"SANGA-SANGA","Latitude":"-0.66572721749999","Longitude":"117.2230016535","Postal":"75594,75251,75256"},{"Code":"6403040","Parent":"6403","Name":"LOA JANAN","Latitude":"-0.73786199999996","Longitude":"117.0167326295","Postal":"75591,75391"},{"Code":"6403050","Parent":"6403","Name":"LOA KULU","Latitude":"-0.64916150299997","Longitude":"116.799813617","Postal":"75571"},{"Code":"6403060","Parent":"6403","Name":"MUARA MUNTAI","Latitude":"-0.57093371499992","Longitude":"116.435661275","Postal":"75562,75592"},{"Code":"6403070","Parent":"6403","Name":"MUARA WIS","Latitude":"-0.27591649999994","Longitude":"116.3146875","Postal":"75559"},{"Code":"6403080","Parent":"6403","Name":"KOTABANGUN","Latitude":"-0.34652349999995","Longitude":"116.619946","Postal":"75561"},{"Code":"6403090","Parent":"6403","Name":"TENGGARONG","Latitude":"-0.41509299999998","Longitude":"116.967596","Postal":"75511,75512,75513,75514,75515,75517,75518,75519"},{"Code":"6403100","Parent":"6403","Name":"SEBULU","Latitude":"-0.25397399999999","Longitude":"116.9573655","Postal":"75552"},{"Code":"6403110","Parent":"6403","Name":"TENGGARONG SEBERANG","Latitude":"-0.27978149999994","Longitude":"117.1199355","Postal":"75572"},{"Code":"6403120","Parent":"6403","Name":"ANGGANA","Latitude":"-0.64832115799999","Longitude":"117.4337049905","Postal":"75581,75381,76131"},{"Code":"6403130","Parent":"6403","Name":"MUARA BADAK","Latitude":"-0.35809601499993","Longitude":"117.380181","Postal":"75582,75382"},{"Code":"6403140","Parent":"6403","Name":"MARANG KAYU","Latitude":"-0.06139223349993","Longitude":"117.2962409815","Postal":"75585,75385"},{"Code":"6403150","Parent":"6403","Name":"MUARA KAMAN","Latitude":"0.11479163700005","Longitude":"116.8357025475","Postal":"75553"},{"Code":"6403160","Parent":"6403","Name":"KENOHAN","Latitude":"-0.020387999999931","Longitude":"116.260649","Postal":"75541,75564"},{"Code":"6403170","Parent":"6403","Name":"KEMBANG JANGGUT","Latitude":"0.23662750000006","Longitude":"116.1408705","Postal":"75557"},{"Code":"6403180","Parent":"6403","Name":"TABANG","Latitude":"0.91601955100004","Longitude":"115.880889","Postal":"75558"}]