[{"Code":"6503010","Parent":"6503","Name":"MURUK RIAN","Latitude":"3.5315413619999","Longitude":"116.804814055","Postal":"77651,77154"},{"Code":"6503020","Parent":"6503","Name":"SESAYAP","Latitude":"3.5980195714997","Longitude":"116.89559157649","Postal":"77611,77151"},{"Code":"6503030","Parent":"6503","Name":"BETAYAU","Latitude":"3.445447403001","Longitude":"117.03363435953","Postal":"77653,77152"},{"Code":"6503040","Parent":"6503","Name":"SESAYAP HILIR","Latitude":"3.5103843694998","Longitude":"117.23884114499","Postal":"77652,77153"},{"Code":"6503050","Parent":"6503","Name":"TANA LIA","Latitude":"3.6876800709997","Longitude":"117.65238977949","Postal":"77661,77451"}]