[{"Code":"6504010","Parent":"6504","Name":"KRAYAN SELATAN","Latitude":"3.7091850404998","Longitude":"115.77482850849","Postal":"77458,77454"},{"Code":"6504011","Parent":"6504","Name":"KRAYAN TENGAH","Latitude":"","Longitude":"","Postal":"77458"},{"Code":"6504020","Parent":"6504","Name":"KRAYAN","Latitude":"4.0268363889999","Longitude":"115.85627150599","Postal":"77456"},{"Code":"6504021","Parent":"6504","Name":"KRAYAN TIMUR","Latitude":"","Longitude":"","Postal":"77459"},{"Code":"6504022","Parent":"6504","Name":"KRAYAN BARAT","Latitude":"","Longitude":"","Postal":"77455"},{"Code":"6504030","Parent":"6504","Name":"LUMBIS OGONG","Latitude":"4.1568749709994","Longitude":"116.38384821998","Postal":"77450"},{"Code":"6504040","Parent":"6504","Name":"LUMBIS","Latitude":"3.8021058650001","Longitude":"116.580081653","Postal":"77457"},{"Code":"6504050","Parent":"6504","Name":"SEMBAKUNG ATULAI","Latitude":"3.8202254204994","Longitude":"116.88573106398","Postal":"77452"},{"Code":"6504060","Parent":"6504","Name":"SEMBAKUNG","Latitude":"3.7792597890002","Longitude":"117.40691771251","Postal":"77453"},{"Code":"6504070","Parent":"6504","Name":"SEBUKU","Latitude":"4.020834981","Longitude":"117.0415041595","Postal":"77491,77481"},{"Code":"6504080","Parent":"6504","Name":"TULIN ONSOI","Latitude":"4.1557349009999","Longitude":"116.9077427495","Postal":"77485"},{"Code":"6504090","Parent":"6504","Name":"SEI MENGGARIS","Latitude":"4.2190754100015","Longitude":"117.32044853354","Postal":"77484"},{"Code":"6504100","Parent":"6504","Name":"NUNUKAN","Latitude":"4.0958206620003","Longitude":"117.43012622851","Postal":"77482"},{"Code":"6504110","Parent":"6504","Name":"NUNUKAN SELATAN","Latitude":"4.0414582034998","Longitude":"117.696601049","Postal":"77411,77412,77413,77414,77480"},{"Code":"6504120","Parent":"6504","Name":"SEBATIK BARAT","Latitude":"4.1116006264972","Longitude":"117.76596968692","Postal":"77441,77443,77444,77486"},{"Code":"6504130","Parent":"6504","Name":"SEBATIK","Latitude":"4.0621508570031","Longitude":"117.87652546959","Postal":"77483"},{"Code":"6504140","Parent":"6504","Name":"SEBATIK TIMUR","Latitude":"4.1142704479988","Longitude":"117.87959861646","Postal":"77433,77436,77438,77488"},{"Code":"6504150","Parent":"6504","Name":"SEBATIK TENGAH","Latitude":"4.1356587874996","Longitude":"117.81768008799","Postal":"77445,77446,77447,77487"},{"Code":"6504160","Parent":"6504","Name":"SEBATIK UTARA","Latitude":"4.1524692984942","Longitude":"117.88265916834","Postal":"77437,77489"}]