[{"Code":"7102091","Parent":"7102","Name":"LANGOWAN TIMUR","Latitude":"1.1485370005013","Longitude":"124.85974750064","Postal":"95644,95696"},{"Code":"7102092","Parent":"7102","Name":"LANGOWAN BARAT","Latitude":"1.1340953384994","Longitude":"124.78952099992","Postal":"95642,95694"},{"Code":"7102093","Parent":"7102","Name":"LANGOWAN SELATAN","Latitude":"1.0831111500002","Longitude":"124.88347400001","Postal":"95643,95695"},{"Code":"7102094","Parent":"7102","Name":"LANGOWAN UTARA","Latitude":"1.1696565005056","Longitude":"124.83081900063","Postal":"95641,95697"},{"Code":"7102110","Parent":"7102","Name":"TOMPASO","Latitude":"1.1827920004965","Longitude":"124.81369643164","Postal":"95691,95693"},{"Code":"7102111","Parent":"7102","Name":"TOMPASO BARAT","Latitude":"1.161432000001","Longitude":"124.7753910001","Postal":"95698"},{"Code":"7102120","Parent":"7102","Name":"KAWANGKOAN","Latitude":"1.2110815000044","Longitude":"124.80474350095","Postal":"95692,95691,95693,95690"},{"Code":"7102121","Parent":"7102","Name":"KAWANGKOAN BARAT","Latitude":"1.1897609855002","Longitude":"124.7562674985","Postal":"95692"},{"Code":"7102122","Parent":"7102","Name":"KAWANGKOAN UTARA","Latitude":"1.2267851680043","Longitude":"124.78569369393","Postal":"95699"},{"Code":"7102130","Parent":"7102","Name":"SONDER","Latitude":"1.2657410000005","Longitude":"124.76501450005","Postal":"95692,95691,95693"},{"Code":"7102160","Parent":"7102","Name":"TOMBARIRI","Latitude":"1.3758209999997","Longitude":"124.65631750047","Postal":"95651"},{"Code":"7102161","Parent":"7102","Name":"TOMBARIRI TIMUR","Latitude":"1.3438214999994","Longitude":"124.73164800044","Postal":"95652"},{"Code":"7102170","Parent":"7102","Name":"PINELENG","Latitude":"1.4000560000005","Longitude":"124.81602150003","Postal":"95661,95662"},{"Code":"7102171","Parent":"7102","Name":"TOMBULU","Latitude":"1.4034310535005","Longitude":"124.88929250054","Postal":"95662,95663"},{"Code":"7102172","Parent":"7102","Name":"MANDOLANG","Latitude":"1.4148875830017","Longitude":"124.75269750014","Postal":"95661"},{"Code":"7102190","Parent":"7102","Name":"TONDANO BARAT","Latitude":"1.3049525009993","Longitude":"124.89257849993","Postal":"95616,95617,95615"},{"Code":"7102191","Parent":"7102","Name":"TONDANO SELATAN","Latitude":"1.2692949999994","Longitude":"124.87815799993","Postal":"95618,95619"},{"Code":"7102200","Parent":"7102","Name":"REMBOKEN","Latitude":"1.2351930004997","Longitude":"124.84596249995","Postal":"95682,95681"},{"Code":"7102210","Parent":"7102","Name":"KAKAS","Latitude":"1.1364735000003","Longitude":"124.93704050803","Postal":"95682,95681,95680"},{"Code":"7102211","Parent":"7102","Name":"KAKAS BARAT","Latitude":"1.1330335004996","Longitude":"124.90087700044","Postal":"95682"},{"Code":"7102220","Parent":"7102","Name":"LEMBEAN TIMUR","Latitude":"1.1743496764998","Longitude":"124.97349199997","Postal":"95685"},{"Code":"7102230","Parent":"7102","Name":"ERIS","Latitude":"1.2337600005033","Longitude":"124.93392900084","Postal":"95683"},{"Code":"7102240","Parent":"7102","Name":"KOMBI","Latitude":"1.2548956385","Longitude":"125.00854099999","Postal":"95684"},{"Code":"7102250","Parent":"7102","Name":"TONDANO TIMUR","Latitude":"1.2902799999982","Longitude":"124.94259049982","Postal":"95611,95612,95613,95614"},{"Code":"7102251","Parent":"7102","Name":"TONDANO UTARA","Latitude":"1.3289730004963","Longitude":"124.91615699965","Postal":"95614,95615,95610"}]