[{"Code":"7110010","Parent":"7110","Name":"POSIGADAN","Latitude":"0.43949332150006","Longitude":"123.6212283055","Postal":"95778,95774"},{"Code":"7110011","Parent":"7110","Name":"TOMINI","Latitude":"","Longitude":"","Postal":"95774,95778"},{"Code":"7110020","Parent":"7110","Name":"BOLANG UKI","Latitude":"0.40943805700016","Longitude":"123.97543607953","Postal":"95774,95770"},{"Code":"7110021","Parent":"7110","Name":"HELUMO","Latitude":"0.38580319000002","Longitude":"123.82796766598","Postal":"95774,95779"},{"Code":"7110030","Parent":"7110","Name":"PINOLOSIAN","Latitude":"0.4616035345","Longitude":"124.11689508849","Postal":"95775"},{"Code":"7110040","Parent":"7110","Name":"PINOLOSIAN TENGAH","Latitude":"0.46922089950005","Longitude":"124.25178182","Postal":"95776"},{"Code":"7110050","Parent":"7110","Name":"PINOLOSIAN TIMUR","Latitude":"0.51635694449987","Longitude":"124.38216281297","Postal":"95777"}]