[{"Code":"7210010","Parent":"7210","Name":"PIPIKORO","Latitude":"-1.8353053569999","Longitude":"119.974759653","Postal":"94384,94370"},{"Code":"7210020","Parent":"7210","Name":"KULAWI SELATAN","Latitude":"-1.6851032410001","Longitude":"120.05091766001","Postal":"94382,94373"},{"Code":"7210030","Parent":"7210","Name":"KULAWI","Latitude":"-1.5409486864999","Longitude":"119.8985139375","Postal":"94363"},{"Code":"7210040","Parent":"7210","Name":"LINDU","Latitude":"-1.3656042414999","Longitude":"120.147169892","Postal":"94381,94369"},{"Code":"7210050","Parent":"7210","Name":"NOKILALAKI","Latitude":"-1.2010856930014","Longitude":"120.10943483914","Postal":"94366,94365"},{"Code":"7210060","Parent":"7210","Name":"PALOLO","Latitude":"-1.1204611155","Longitude":"120.15840954","Postal":"94368,94365,94366"},{"Code":"7210070","Parent":"7210","Name":"GUMBASA","Latitude":"-1.2585516595","Longitude":"119.99476761151","Postal":"94383,94364"},{"Code":"7210080","Parent":"7210","Name":"DOLO SELATAN","Latitude":"-1.2605517665001","Longitude":"119.83629545651","Postal":"94367,94371"},{"Code":"7210090","Parent":"7210","Name":"DOLO BARAT","Latitude":"-1.0634953315001","Longitude":"119.83446454552","Postal":"94368,94365,94360"},{"Code":"7210100","Parent":"7210","Name":"TANAMBULAVA","Latitude":"-1.1393570234991","Longitude":"119.94494570192","Postal":"94386,94368"},{"Code":"7210110","Parent":"7210","Name":"DOLO","Latitude":"-1.0152173765002","Longitude":"119.84603298552","Postal":"94361,94364"},{"Code":"7210120","Parent":"7210","Name":"SIGI BIROMARU","Latitude":"-0.99856368400004","Longitude":"119.97144014701","Postal":"94361,94364,94367"},{"Code":"7210130","Parent":"7210","Name":"MARAWOLA","Latitude":"-0.96909220449915","Longitude":"119.85293152342","Postal":"94362,94372"},{"Code":"7210140","Parent":"7210","Name":"MARAWOLA BARAT","Latitude":"-0.96820508500011","Longitude":"119.73721280602","Postal":"94369,94374"},{"Code":"7210150","Parent":"7210","Name":"KINOVARO","Latitude":"-0.94168967599981","Longitude":"119.81213112098","Postal":"94385,94362"}]