[{"Code":"7301010","Parent":"7301","Name":"PASIMARANNU","Latitude":"-7.3873246049989","Longitude":"121.00675413848","Postal":"92862"},{"Code":"7301011","Parent":"7301","Name":"PASILAMBENA","Latitude":"-7.3588450560027","Longitude":"121.62656810904","Postal":"92869,92863"},{"Code":"7301020","Parent":"7301","Name":"PASIMASSUNGGU","Latitude":"-7.0497824160001","Longitude":"120.578258643","Postal":"92861,92811"},{"Code":"7301021","Parent":"7301","Name":"TAKABONERATE","Latitude":"-6.7799165695008","Longitude":"121.13012966801","Postal":"92864,92860"},{"Code":"7301022","Parent":"7301","Name":"PASIMASSUNGGU TIMUR","Latitude":"-7.0766454689655","Longitude":"120.73547502891","Postal":"92861,92863"},{"Code":"7301030","Parent":"7301","Name":"BONTOSIKUYU","Latitude":"-6.4533806719999","Longitude":"120.4043593905","Postal":"92855"},{"Code":"7301040","Parent":"7301","Name":"BONTOHARU","Latitude":"-6.1509888229879","Longitude":"120.47054231576","Postal":"92811"},{"Code":"7301041","Parent":"7301","Name":"BENTENG","Latitude":"-6.1114120714583","Longitude":"120.46454310671","Postal":"92812"},{"Code":"7301042","Parent":"7301","Name":"BONTOMANAI","Latitude":"-6.0508264525047","Longitude":"120.50814977709","Postal":"92851,92863"},{"Code":"7301050","Parent":"7301","Name":"BONTOMATENE","Latitude":"-5.8489432229991","Longitude":"120.49162276448","Postal":"92854,92861"},{"Code":"7301051","Parent":"7301","Name":"BUKI","Latitude":"-5.9705206405154","Longitude":"120.49953745631","Postal":"92852,92851,92854"}]