[{"Code":"7303010","Parent":"7303","Name":"BISSAPPU","Latitude":"-5.5422630124875","Longitude":"119.90524853124","Postal":"92451"},{"Code":"7303011","Parent":"7303","Name":"ULUERE","Latitude":"-5.4408271740117","Longitude":"119.92392212426","Postal":"92453,92452"},{"Code":"7303012","Parent":"7303","Name":"SINOA","Latitude":"-5.4888504459938","Longitude":"119.92644284588","Postal":"92452,92450"},{"Code":"7303020","Parent":"7303","Name":"BANTAENG","Latitude":"-5.5037087525135","Longitude":"119.96596446031","Postal":"92411,92412,92413,92415"},{"Code":"7303021","Parent":"7303","Name":"EREMERASA","Latitude":"-5.4724911875018","Longitude":"119.99007032454","Postal":"92414,92415,92416"},{"Code":"7303030","Parent":"7303","Name":"TOMPOBULU","Latitude":"-5.4401186525021","Longitude":"120.02397111854","Postal":"92462,92461"},{"Code":"7303031","Parent":"7303","Name":"'PA''JUKUKANG'","Latitude":"-5.5451389244959","Longitude":"120.04282342042","Postal":"92463,92460"},{"Code":"7303032","Parent":"7303","Name":"GANTARANGKEKE","Latitude":"-5.5254079929973","Longitude":"120.05404752794","Postal":"92462,92461"}]