[{"Code":"7304010","Parent":"7304","Name":"BANGKALA","Latitude":"-5.5639130015002","Longitude":"119.6030385875","Postal":"92352"},{"Code":"7304011","Parent":"7304","Name":"BANGKALA BARAT","Latitude":"-5.5129395694949","Longitude":"119.56720786589","Postal":"92355,92353"},{"Code":"7304020","Parent":"7304","Name":"TAMALATEA","Latitude":"-5.6365126300144","Longitude":"119.66636224781","Postal":"92351,92350"},{"Code":"7304021","Parent":"7304","Name":"BONTORAMBA","Latitude":"-5.561573919991","Longitude":"119.6826675318","Postal":"92354,92351"},{"Code":"7304030","Parent":"7304","Name":"BINAMU","Latitude":"-5.6676431049789","Longitude":"119.72316985906","Postal":"92311,92314,92315,92316,92319"},{"Code":"7304031","Parent":"7304","Name":"TURATEA","Latitude":"-5.6024579140257","Longitude":"119.75573634055","Postal":"92353,92312,92313"},{"Code":"7304040","Parent":"7304","Name":"BATANG","Latitude":"-5.6146143965253","Longitude":"119.81892414305","Postal":"92361,92360"},{"Code":"7304041","Parent":"7304","Name":"ARUNGKEKE","Latitude":"-5.6656940594626","Longitude":"119.80899066621","Postal":"92362,92361"},{"Code":"7304042","Parent":"7304","Name":"TAROWANG","Latitude":"-5.5883386439887","Longitude":"119.86706844276","Postal":"92363,92362"},{"Code":"7304050","Parent":"7304","Name":"KELARA","Latitude":"-5.5518510635035","Longitude":"119.82447883758","Postal":"92371"},{"Code":"7304051","Parent":"7304","Name":"RUMBIA","Latitude":"-5.4574020504953","Longitude":"119.8853553109","Postal":"92372,92314,92572"}]