[{"Code":"7306010","Parent":"7306","Name":"BONTONOMPO","Latitude":"-5.3633418555043","Longitude":"119.4378192171","Postal":"92153"},{"Code":"7306011","Parent":"7306","Name":"BONTONOMPO SELATAN","Latitude":"-5.4151511659779","Longitude":"119.399256181","Postal":"92152,92154"},{"Code":"7306020","Parent":"7306","Name":"BAJENG","Latitude":"-5.2795494439783","Longitude":"119.46838556352","Postal":"92152,92154"},{"Code":"7306021","Parent":"7306","Name":"BAJENG BARAT","Latitude":"-5.30366747242","Longitude":"119.40125205119","Postal":"92156,92151"},{"Code":"7306030","Parent":"7306","Name":"PALLANGGA","Latitude":"-5.2434730984888","Longitude":"119.47346651926","Postal":"92163,92177,92161"},{"Code":"7306031","Parent":"7306","Name":"BAROMBONG","Latitude":"-5.2327860760072","Longitude":"119.41084934268","Postal":"92155,90225"},{"Code":"7306040","Parent":"7306","Name":"SOMBA OPU","Latitude":"-5.2104465120036","Longitude":"119.48035949259","Postal":"92111,92112,92113,92114,92115,92116,92117,92118,92119"},{"Code":"7306050","Parent":"7306","Name":"BONTOMARANNU","Latitude":"-5.2576291360035","Longitude":"119.54132837257","Postal":"92171,92176"},{"Code":"7306051","Parent":"7306","Name":"PATTALLASSANG","Latitude":"-5.2101600059854","Longitude":"119.55787561817","Postal":"92177,92172"},{"Code":"7306060","Parent":"7306","Name":"PARANGLOE","Latitude":"-5.2175108265002","Longitude":"119.66942888351","Postal":"92173,92179"},{"Code":"7306061","Parent":"7306","Name":"MANUJU","Latitude":"-5.2970208850025","Longitude":"119.67400781005","Postal":"92162,92173"},{"Code":"7306070","Parent":"7306","Name":"TINGGIMONCONG","Latitude":"-5.2496596354954","Longitude":"119.8469042884","Postal":"92174,92178"},{"Code":"7306071","Parent":"7306","Name":"TOMBOLO PAO","Latitude":"-5.2024575524974","Longitude":"119.93786005294","Postal":"92179,92170"},{"Code":"7306072","Parent":"7306","Name":"PARIGI","Latitude":"-5.3097866325169","Longitude":"119.85286810589","Postal":"92178,92174"},{"Code":"7306080","Parent":"7306","Name":"BUNGAYA","Latitude":"-5.3662259384978","Longitude":"119.69398167845","Postal":"92171,92176,92177"},{"Code":"7306081","Parent":"7306","Name":"BONTOLEMPANGAN","Latitude":"-5.3899762984968","Longitude":"119.83106288993","Postal":"92163,92176"},{"Code":"7306090","Parent":"7306","Name":"TOMPOBULU","Latitude":"-5.4325742964966","Longitude":"119.86479992243","Postal":"92175"},{"Code":"7306091","Parent":"7306","Name":"BIRINGBULU","Latitude":"-5.4837786350016","Longitude":"119.72169575954","Postal":"92164,92161,90244"}]