[{"Code":"7307010","Parent":"7307","Name":"SINJAI BARAT","Latitude":"-5.2394048085032","Longitude":"120.00657285707","Postal":"92653"},{"Code":"7307020","Parent":"7307","Name":"SINJAI BORONG","Latitude":"-5.2987719065133","Longitude":"120.0491598708","Postal":"92662"},{"Code":"7307030","Parent":"7307","Name":"SINJAI SELATAN","Latitude":"-5.2367679515057","Longitude":"120.15744843863","Postal":"92661"},{"Code":"7307040","Parent":"7307","Name":"TELLU LIMPOE","Latitude":"-5.2633427820085","Longitude":"120.23787164269","Postal":"92672,92681"},{"Code":"7307050","Parent":"7307","Name":"SINJAI TIMUR","Latitude":"-5.1808188199919","Longitude":"120.25158005731","Postal":"92671"},{"Code":"7307060","Parent":"7307","Name":"SINJAI TENGAH","Latitude":"-5.1863579474945","Longitude":"120.12440951538","Postal":"92652"},{"Code":"7307070","Parent":"7307","Name":"SINJAI UTARA","Latitude":"-5.1146516070216","Longitude":"120.24465539201","Postal":"92611,92612,92613,92614,92615,92616"},{"Code":"7307080","Parent":"7307","Name":"BULUPODDO","Latitude":"-5.0996012229948","Longitude":"120.13521571488","Postal":"92654"},{"Code":"7307090","Parent":"7307","Name":"PULAU SEMBILAN","Latitude":"-5.0821057035209","Longitude":"120.4077768765","Postal":"92681,92616"}]