[{"Code":"7312010","Parent":"7312","Name":"MARIO RIWAWO","Latitude":"-4.4770379395015","Longitude":"119.92416791154","Postal":"90862"},{"Code":"7312020","Parent":"7312","Name":"LALABATA","Latitude":"-4.3941528825021","Longitude":"119.86648103206","Postal":"90811,90812,90813,90814"},{"Code":"7312030","Parent":"7312","Name":"LILI RIAJA","Latitude":"-4.4021228609968","Longitude":"119.93869288442","Postal":"90861,90863"},{"Code":"7312031","Parent":"7312","Name":"GANRA","Latitude":"-4.3000385714941","Longitude":"119.95137264885","Postal":"90864,90860"},{"Code":"7312032","Parent":"7312","Name":"CITTA","Latitude":"-4.4159544914641","Longitude":"120.02851263303","Postal":"90863,90861"},{"Code":"7312040","Parent":"7312","Name":"LILI RILAU","Latitude":"-4.3320655689978","Longitude":"120.02617793795","Postal":"90871"},{"Code":"7312050","Parent":"7312","Name":"DONRI DONRI","Latitude":"-4.2631959474981","Longitude":"119.85101458595","Postal":"90853"},{"Code":"7312060","Parent":"7312","Name":"MARIO RIAWA","Latitude":"-4.1905296790031","Longitude":"119.81949669809","Postal":"90852"}]