[{"Code":"7317010","Parent":"7317","Name":"LAROMPONG","Latitude":"-3.5622013289963","Longitude":"120.29206639237","Postal":"91997"},{"Code":"7317011","Parent":"7317","Name":"LAROMPONG SELATAN","Latitude":"-3.6131148979997","Longitude":"120.34889778399","Postal":"91998"},{"Code":"7317020","Parent":"7317","Name":"SULI","Latitude":"-3.4524889515043","Longitude":"120.34776676715","Postal":"91996,91985"},{"Code":"7317021","Parent":"7317","Name":"SULI BARAT","Latitude":"-3.4564657970001","Longitude":"120.2596625725","Postal":"91944,91986"},{"Code":"7317030","Parent":"7317","Name":"BELOPA","Latitude":"-3.3906500940002","Longitude":"120.361682674","Postal":"91994,91983"},{"Code":"7317031","Parent":"7317","Name":"KAMANRE","Latitude":"-3.3155568430049","Longitude":"120.34117799068","Postal":"91946,91994"},{"Code":"7317032","Parent":"7317","Name":"BELOPA UTARA","Latitude":"-3.3581339289912","Longitude":"120.37150887517","Postal":"91947,91984"},{"Code":"7317040","Parent":"7317","Name":"BAJO","Latitude":"-3.3563761959982","Longitude":"120.30397063894","Postal":"91995"},{"Code":"7317041","Parent":"7317","Name":"BAJO BARAT","Latitude":"-3.3555794020019","Longitude":"120.23492480357","Postal":"91943,91996"},{"Code":"7317050","Parent":"7317","Name":"BASSESANGTEMPE","Latitude":"-3.2199974785012","Longitude":"120.07998806155","Postal":"91992,91993,91990"},{"Code":"7317051","Parent":"7317","Name":"LATIMOJONG","Latitude":"-3.3801282655012","Longitude":"120.11559669304","Postal":"91942,91921"},{"Code":"7317052","Parent":"7317","Name":"BASSESANGTEMPE UTARA","Latitude":"-3.1064873655005","Longitude":"120.07534835902","Postal":"91992"},{"Code":"7317060","Parent":"7317","Name":"BUPON","Latitude":"-3.2722341585003","Longitude":"120.23014272401","Postal":"91993"},{"Code":"7317061","Parent":"7317","Name":"PONRANG","Latitude":"-3.2106076795007","Longitude":"120.25634167603","Postal":"91999"},{"Code":"7317062","Parent":"7317","Name":"PONRANG SELATAN","Latitude":"-3.2488335875033","Longitude":"120.35522596662","Postal":"91945,91989"},{"Code":"7317070","Parent":"7317","Name":"BUA","Latitude":"-3.1139996490003","Longitude":"120.19737521451","Postal":"91991"},{"Code":"7317080","Parent":"7317","Name":"WALENRANG","Latitude":"-2.8890556034994","Longitude":"120.11179440897","Postal":"91951,91950"},{"Code":"7317081","Parent":"7317","Name":"WALENRANG TIMUR","Latitude":"-2.8943941100012","Longitude":"120.21201134055","Postal":"91959,91951"},{"Code":"7317090","Parent":"7317","Name":"LAMASI","Latitude":"-2.8006789034989","Longitude":"120.18206966045","Postal":"91952"},{"Code":"7317091","Parent":"7317","Name":"WALENRANG UTARA","Latitude":"-2.7599386084982","Longitude":"120.09038143592","Postal":"91957,91953"},{"Code":"7317092","Parent":"7317","Name":"WALENRANG BARAT","Latitude":"-2.8133889595006","Longitude":"119.98725232403","Postal":"91958,91951,91952"},{"Code":"7317093","Parent":"7317","Name":"LAMASI TIMUR","Latitude":"-2.8740386775002","Longitude":"120.23416582651","Postal":"91952,91951"}]