[{"Code":"7402010","Parent":"7402","Name":"TONGKUNO","Latitude":"-5.0538362365018","Longitude":"122.62371453604","Postal":"93662"},{"Code":"7402011","Parent":"7402","Name":"TONGKUNO SELATAN","Latitude":"-5.1930437765523","Longitude":"122.52407619174","Postal":"93669,93665"},{"Code":"7402020","Parent":"7402","Name":"PARIGI","Latitude":"-5.1270940825002","Longitude":"122.46790859301","Postal":"93663,93667"},{"Code":"7402021","Parent":"7402","Name":"BONE","Latitude":"-5.1740681100062","Longitude":"122.42859925915","Postal":"93667,93663"},{"Code":"7402022","Parent":"7402","Name":"MAROBO","Latitude":"-5.1286163945129","Longitude":"122.35118279929","Postal":"93668,93666"},{"Code":"7402030","Parent":"7402","Name":"KABAWO","Latitude":"-5.0049986685059","Longitude":"122.47968585315","Postal":"93661"},{"Code":"7402031","Parent":"7402","Name":"KABANGKA","Latitude":"-4.9554822159982","Longitude":"122.42657759796","Postal":"93664"},{"Code":"7402032","Parent":"7402","Name":"KONTUKOWUNA","Latitude":"-4.9441687565084","Longitude":"122.5064511762","Postal":"93649,93660"},{"Code":"7402061","Parent":"7402","Name":"KONTUNAGA","Latitude":"-4.8493336304981","Longitude":"122.64353067895","Postal":"93641,93625"},{"Code":"7402062","Parent":"7402","Name":"WATOPUTE","Latitude":"-4.7875623824988","Longitude":"122.63114401397","Postal":"93644,93624"},{"Code":"7402070","Parent":"7402","Name":"KATOBU","Latitude":"-4.8288499025502","Longitude":"122.71483120625","Postal":"93611,93612,93613,93615,93619,93616"},{"Code":"7402071","Parent":"7402","Name":"LOHIA","Latitude":"-4.9042037920034","Longitude":"122.71268392859","Postal":"93658,93626"},{"Code":"7402072","Parent":"7402","Name":"DURUKA","Latitude":"-4.8671239330226","Longitude":"122.71356279907","Postal":"93659,93618"},{"Code":"7402073","Parent":"7402","Name":"BATALAIWORU","Latitude":"-4.7990663419836","Longitude":"122.70431626807","Postal":"93643,93614"},{"Code":"7402080","Parent":"7402","Name":"NAPABALANO","Latitude":"-4.6550067770082","Longitude":"122.68579783122","Postal":"93654,93622"},{"Code":"7402081","Parent":"7402","Name":"LASALEPA","Latitude":"-4.734608836992","Longitude":"122.69258105329","Postal":"93645,93621"},{"Code":"7402083","Parent":"7402","Name":"TOWEA","Latitude":"-4.5593615075254","Longitude":"122.71288679168","Postal":"93682,93623"},{"Code":"7402090","Parent":"7402","Name":"WAKORUMBA SELATAN","Latitude":"-4.933228926003","Longitude":"122.86466778456","Postal":"93674,93681"},{"Code":"7402091","Parent":"7402","Name":"PASIR PUTIH","Latitude":"-5.0228287505004","Longitude":"122.82223513851","Postal":"93677,93685"},{"Code":"7402092","Parent":"7402","Name":"PASI KOLAGA","Latitude":"-5.020428995996","Longitude":"122.81193448091","Postal":"93678,93684"},{"Code":"7402111","Parent":"7402","Name":"MALIGANO","Latitude":"-4.6773596204873","Longitude":"122.87856340967","Postal":"93671,93683"},{"Code":"7402112","Parent":"7402","Name":"BATUKARA","Latitude":"-4.8134056445","Longitude":"122.8653002465","Postal":"93675,93682"}]