[{"Code":"7405010","Parent":"7405","Name":"TINANGGEA","Latitude":"-4.4516440505012","Longitude":"122.17742955754","Postal":"93885,93886"},{"Code":"7405011","Parent":"7405","Name":"LALEMBUU","Latitude":"-4.3781492020009","Longitude":"122.04107632303","Postal":"93863,93864,93885"},{"Code":"7405020","Parent":"7405","Name":"ANDOOLO","Latitude":"-4.3378983844953","Longitude":"122.24106879938","Postal":"93811,93813,93818,93810,93819"},{"Code":"7405021","Parent":"7405","Name":"BUKE","Latitude":"-4.2359272240053","Longitude":"122.24484440465","Postal":"93884,93812,93819"},{"Code":"7405022","Parent":"7405","Name":"ANDOOLO BARAT","Latitude":"-4.3227766405193","Longitude":"122.15545851254","Postal":"93817,93813,93819"},{"Code":"7405030","Parent":"7405","Name":"PALANGGA","Latitude":"-4.3267631864994","Longitude":"122.36571397098","Postal":"93883,93882"},{"Code":"7405031","Parent":"7405","Name":"PALANGGA SELATAN","Latitude":"-4.4147849824954","Longitude":"122.37886688338","Postal":"93886,93884"},{"Code":"7405032","Parent":"7405","Name":"BAITO","Latitude":"-4.2382337214987","Longitude":"122.34159823246","Postal":"93852,93883"},{"Code":"7405040","Parent":"7405","Name":"LAINEA","Latitude":"-4.3942793809999","Longitude":"122.6358805285","Postal":"93881"},{"Code":"7405041","Parent":"7405","Name":"LAEYA","Latitude":"-4.329159965001","Longitude":"122.48752240153","Postal":"93887,93880"},{"Code":"7405050","Parent":"7405","Name":"KOLONO","Latitude":"-4.3559951305002","Longitude":"122.69183750602","Postal":"93893,93895"},{"Code":"7405051","Parent":"7405","Name":"KOLONO TIMUR","Latitude":"-4.3786020949988","Longitude":"122.80843476147","Postal":"93894"},{"Code":"7405060","Parent":"7405","Name":"LAONTI","Latitude":"-4.225088638498","Longitude":"122.82557580494","Postal":"93892"},{"Code":"7405070","Parent":"7405","Name":"MORAMO","Latitude":"-4.1859951294982","Longitude":"122.65123318845","Postal":"93891"},{"Code":"7405071","Parent":"7405","Name":"MORAMO UTARA","Latitude":"-4.1018894854963","Longitude":"122.59966951239","Postal":"93894,93890"},{"Code":"7405080","Parent":"7405","Name":"KONDA","Latitude":"-4.1048918764973","Longitude":"122.46299588342","Postal":"93874"},{"Code":"7405081","Parent":"7405","Name":"WOLASI","Latitude":"-4.198490767997","Longitude":"122.45371102742","Postal":"93874,93875,93878"},{"Code":"7405090","Parent":"7405","Name":"RANOMEETO","Latitude":"-4.0846338980005","Longitude":"122.40888953752","Postal":"93871,93870"},{"Code":"7405091","Parent":"7405","Name":"RANOMEETO BARAT","Latitude":"-4.0444542599938","Longitude":"122.37917576681","Postal":"93877,93871"},{"Code":"7405100","Parent":"7405","Name":"LANDONO","Latitude":"-4.1056589555026","Longitude":"122.30880779857","Postal":"93873"},{"Code":"7405101","Parent":"7405","Name":"MOWILA","Latitude":"-4.1040331355025","Longitude":"122.23934515158","Postal":"93876,93879"},{"Code":"7405102","Parent":"7405","Name":"SABULAKOA","Latitude":"-4.0229567429939","Longitude":"122.26933068681","Postal":"93817,93872"},{"Code":"7405110","Parent":"7405","Name":"ANGATA","Latitude":"-4.1439723655011","Longitude":"122.11958819754","Postal":"93862,93875"},{"Code":"7405111","Parent":"7405","Name":"BENUA","Latitude":"-4.2589822390009","Longitude":"122.09493252453","Postal":"93861,93877"},{"Code":"7405112","Parent":"7405","Name":"BASALA","Latitude":"-4.3245618420019","Longitude":"122.05895072505","Postal":"93863,93864,93876"}]