[{"Code":"7407010","Parent":"7407","Name":"BINONGKO","Latitude":"-5.9206664165002","Longitude":"124.2905028075","Postal":"93794,93797"},{"Code":"7407011","Parent":"7407","Name":"TOGO BINONGKO","Latitude":"-5.9793618970194","Longitude":"124.02254376591","Postal":"93798,93796"},{"Code":"7407020","Parent":"7407","Name":"TOMIA","Latitude":"-5.5561658889999","Longitude":"124.1094560365","Postal":"93793,93791"},{"Code":"7407021","Parent":"7407","Name":"TOMIA TIMUR","Latitude":"-5.7745593600119","Longitude":"123.95469237577","Postal":"93797"},{"Code":"7407030","Parent":"7407","Name":"KALEDUPA","Latitude":"-5.5014450140158","Longitude":"123.74027823685","Postal":"93792"},{"Code":"7407031","Parent":"7407","Name":"KALEDUPA SELATAN","Latitude":"-5.5674071565059","Longitude":"123.81903518813","Postal":"93796,93790"},{"Code":"7407040","Parent":"7407","Name":"WANGI-WANGI","Latitude":"-5.2856588174748","Longitude":"123.58180017291","Postal":"93793,93791"},{"Code":"7407050","Parent":"7407","Name":"WANGI-WANGI SELATAN","Latitude":"-5.36738442501","Longitude":"123.55365807574","Postal":"93795"}]