[{"Code":"7408010","Parent":"7408","Name":"RANTEANGIN","Latitude":"-3.6108708774999","Longitude":"121.08326812151","Postal":"93956,93961"},{"Code":"7408011","Parent":"7408","Name":"LAMBAI","Latitude":"-3.5781136044986","Longitude":"121.05864607746","Postal":"93953,93956"},{"Code":"7408012","Parent":"7408","Name":"WAWO","Latitude":"-3.6512805451815","Longitude":"121.13696474303","Postal":"93952,93962"},{"Code":"7408020","Parent":"7408","Name":"LASUSUA","Latitude":"-3.5472461152991","Longitude":"121.01041850034","Postal":"93911,93912,93915,93916,93919"},{"Code":"7408021","Parent":"7408","Name":"KATOI","Latitude":"-3.4424180794997","Longitude":"120.99567795914","Postal":"93951,93913,93916"},{"Code":"7408030","Parent":"7408","Name":"KODEOHA","Latitude":"-3.401752233203","Longitude":"121.02191172688","Postal":"93957"},{"Code":"7408031","Parent":"7408","Name":"TIWU","Latitude":"-3.3828728900001","Longitude":"121.05083152602","Postal":"93961,93963"},{"Code":"7408040","Parent":"7408","Name":"NGAPA","Latitude":"-3.3461490419996","Longitude":"121.07073676848","Postal":"93958"},{"Code":"7408041","Parent":"7408","Name":"WATUNOHU","Latitude":"-3.2825939065004","Longitude":"120.99480410152","Postal":"93962,93959"},{"Code":"7408050","Parent":"7408","Name":"PAKUE","Latitude":"-3.2625949274985","Longitude":"121.10018546395","Postal":"93954"},{"Code":"7408051","Parent":"7408","Name":"PAKUE UTARA","Latitude":"-3.2394296504997","Longitude":"121.25315529149","Postal":"93964,93952"},{"Code":"7408052","Parent":"7408","Name":"PAKUE TENGAH","Latitude":"-3.1996630175022","Longitude":"121.16736133059","Postal":"93963,93953"},{"Code":"7408060","Parent":"7408","Name":"BATU PUTIH","Latitude":"-3.0935958624999","Longitude":"121.242019355","Postal":"93955"},{"Code":"7408061","Parent":"7408","Name":"POREHU","Latitude":"-2.9455264505004","Longitude":"121.24334999602","Postal":"93965,93950"},{"Code":"7408062","Parent":"7408","Name":"TOLALA","Latitude":"-2.8847771485927","Longitude":"121.0990911795","Postal":"93966,93951"}]