[{"Code":"7410010","Parent":"7410","Name":"SAWA","Latitude":"-3.7812667165066","Longitude":"122.40354215172","Postal":"93355,93357"},{"Code":"7410011","Parent":"7410","Name":"MOTUI","Latitude":"-3.8369149840028","Longitude":"122.39250628959","Postal":"93356,93355,93358"},{"Code":"7410020","Parent":"7410","Name":"LEMBO","Latitude":"-3.7942305359984","Longitude":"122.33232682645","Postal":"93354,93350"},{"Code":"7410030","Parent":"7410","Name":"LASOLO","Latitude":"-3.5564963420001","Longitude":"122.26964601751","Postal":"93352"},{"Code":"7410031","Parent":"7410","Name":"WAWOLESEA","Latitude":"","Longitude":"","Postal":"93342"},{"Code":"7410032","Parent":"7410","Name":"LASOLO KEPULAUAN","Latitude":"","Longitude":"","Postal":"93341"},{"Code":"7410040","Parent":"7410","Name":"MOLAWE","Latitude":"-3.5745888314997","Longitude":"122.20354644199","Postal":"93353,93351,93359"},{"Code":"7410050","Parent":"7410","Name":"ASERA","Latitude":"-3.3715752290002","Longitude":"121.81052100001","Postal":"93311,93355"},{"Code":"7410051","Parent":"7410","Name":"ANDOWIA","Latitude":"-3.577590499498","Longitude":"122.07659333643","Postal":"93353,93351,93356"},{"Code":"7410052","Parent":"7410","Name":"OHEO","Latitude":"-3.3815700955006","Longitude":"122.05859363552","Postal":"93341,93354"},{"Code":"7410060","Parent":"7410","Name":"LANGGIKIMA","Latitude":"-3.3247308179998","Longitude":"122.22842961749","Postal":"93343,93351"},{"Code":"7410070","Parent":"7410","Name":"WIWIRANO","Latitude":"-3.1460726930001","Longitude":"122.065360716","Postal":"93342,93343"},{"Code":"7410071","Parent":"7410","Name":"LANDAWE","Latitude":"","Longitude":"","Postal":"93353"}]