[{"Code":"7415010","Parent":"7415","Name":"BATU ATAS","Latitude":"-6.1928232270144","Longitude":"122.70550162579","Postal":"93739,93745"},{"Code":"7415020","Parent":"7415","Name":"LAPANDEWA","Latitude":"-5.6336462264985","Longitude":"122.78203436148","Postal":"93731,93746"},{"Code":"7415030","Parent":"7415","Name":"SAMPOLAWA","Latitude":"-5.591496688007","Longitude":"122.72569817515","Postal":"93753,93747"},{"Code":"7415040","Parent":"7415","Name":"BATAUGA","Latitude":"-5.6022865834956","Longitude":"122.62795544241","Postal":"93752,93741"},{"Code":"7415050","Parent":"7415","Name":"SIOMPU BARAT","Latitude":"-5.6822585044627","Longitude":"122.49203601769","Postal":"93739,93744"},{"Code":"7415060","Parent":"7415","Name":"SIOMPU","Latitude":"-5.6448283810089","Longitude":"122.5230248052","Postal":"93739,93743"},{"Code":"7415070","Parent":"7415","Name":"KADATUA","Latitude":"-5.5483132089953","Longitude":"122.49728756089","Postal":"93738,93742"}]