[{"Code":"7472010","Parent":"7472","Name":"BETOAMBARI","Latitude":"-5.503361382001","Longitude":"122.58956167854","Postal":"93724,93721,93725"},{"Code":"7472011","Parent":"7472","Name":"MURHUM","Latitude":"-5.4780585759878","Longitude":"122.60243058821","Postal":"93725,93726,93727,93721"},{"Code":"7472012","Parent":"7472","Name":"BATUPOARO","Latitude":"-5.4628882918066","Longitude":"122.59508595147","Postal":"93728"},{"Code":"7472020","Parent":"7472","Name":"WOLIO","Latitude":"-5.4835211750337","Longitude":"122.63699087325","Postal":"93711,93712,93713,93714,93715,93717"},{"Code":"7472021","Parent":"7472","Name":"KOKALUKUNA","Latitude":"-5.4395314519878","Longitude":"122.65009412973","Postal":"93716,93711,93719"},{"Code":"7472030","Parent":"7472","Name":"SORAWOLIO","Latitude":"-5.4272432550018","Longitude":"122.71140255554","Postal":"93728,93731"},{"Code":"7472040","Parent":"7472","Name":"BUNGI","Latitude":"-5.375159358503","Longitude":"122.69714429406","Postal":"93729,93732"},{"Code":"7472041","Parent":"7472","Name":"LEA-LEA","Latitude":"-5.3613875120145","Longitude":"122.64954997233","Postal":"93719,93733"}]