[{"Code":"7504010","Parent":"7504","Name":"TAPA","Latitude":"0.62438470599923","Longitude":"123.09679021434","Postal":"96582,96545"},{"Code":"7504011","Parent":"7504","Name":"BULANGO UTARA","Latitude":"0.70751816800014","Longitude":"123.0851018845","Postal":"96561,96544"},{"Code":"7504012","Parent":"7504","Name":"BULANGO SELATAN","Latitude":"0.59184046450105","Longitude":"123.08097115519","Postal":"96562,96541"},{"Code":"7504013","Parent":"7504","Name":"BULANGO TIMUR","Latitude":"0.6158845914998","Longitude":"123.10680880096","Postal":"96563,96542"},{"Code":"7504014","Parent":"7504","Name":"BULANGO ULU","Latitude":"0.69629356250013","Longitude":"123.20563083302","Postal":"96564,96543"},{"Code":"7504020","Parent":"7504","Name":"KABILA","Latitude":"0.54644376449909","Longitude":"123.10271601925","Postal":"96583,96552"},{"Code":"7504021","Parent":"7504","Name":"BOTU PINGGE","Latitude":"0.5185968875011","Longitude":"123.10158845575","Postal":"96572,96551"},{"Code":"7504022","Parent":"7504","Name":"TILONGKABILA","Latitude":"0.59191401449993","Longitude":"123.13170395597","Postal":"96571,96554"},{"Code":"7504030","Parent":"7504","Name":"SUWAWA","Latitude":"0.57114720250003","Longitude":"123.17915493499","Postal":"96511,96512,96513,96516,96562"},{"Code":"7504031","Parent":"7504","Name":"SUWAWA SELATAN","Latitude":"0.49296483600032","Longitude":"123.17046138406","Postal":"96574,96563"},{"Code":"7504032","Parent":"7504","Name":"SUWAWA TIMUR","Latitude":"0.56508177400001","Longitude":"123.2883707555","Postal":"96572,96575,96565"},{"Code":"7504033","Parent":"7504","Name":"SUWAWA TENGAH","Latitude":"0.53745860650018","Longitude":"123.17973617854","Postal":"96584,96564"},{"Code":"7504034","Parent":"7504","Name":"PINOGU","Latitude":"0.52521606450011","Longitude":"123.43150890901","Postal":"96561"},{"Code":"7504040","Parent":"7504","Name":"BONEPANTAI","Latitude":"0.40706380700005","Longitude":"123.2245932435","Postal":"96585,96573"},{"Code":"7504041","Parent":"7504","Name":"KABILA BONE","Latitude":"0.45411949999999","Longitude":"123.13678781448","Postal":"96573,96553"},{"Code":"7504042","Parent":"7504","Name":"BONE RAYA","Latitude":"0.36312112400025","Longitude":"123.34823475858","Postal":"96591,96572"},{"Code":"7504043","Parent":"7504","Name":"BONE","Latitude":"0.37756671100006","Longitude":"123.459568547","Postal":"96592,96571"},{"Code":"7504044","Parent":"7504","Name":"BULAWA","Latitude":"0.37436896450013","Longitude":"123.28976456504","Postal":"96586,96574"}]