[{"Code":"7602010","Parent":"7602","Name":"TINAMBUNG","Latitude":"-3.509083156496","Longitude":"119.00883147988","Postal":"91354,91356"},{"Code":"7602011","Parent":"7602","Name":"BALANIPA","Latitude":"-3.4801548020051","Longitude":"119.06523090418","Postal":"91359,91354"},{"Code":"7602012","Parent":"7602","Name":"LIMBORO","Latitude":"-3.4383748580033","Longitude":"119.00676092812","Postal":"91358,91321"},{"Code":"7602020","Parent":"7602","Name":"TUBBI TARAMANU","Latitude":"-3.2343641875","Longitude":"118.99785544","Postal":"91355"},{"Code":"7602021","Parent":"7602","Name":"ALU","Latitude":"-3.3528779730003","Longitude":"118.97339458802","Postal":"91356,91325"},{"Code":"7602030","Parent":"7602","Name":"CAMPALAGIAN","Latitude":"-3.455522306498","Longitude":"119.12827403143","Postal":"91353,91357"},{"Code":"7602031","Parent":"7602","Name":"LUYO","Latitude":"-3.3535981635028","Longitude":"119.1132312921","Postal":"91357,91358"},{"Code":"7602040","Parent":"7602","Name":"WONOMULYO","Latitude":"-3.4266478339983","Longitude":"119.24031038894","Postal":"91352,91342"},{"Code":"7602041","Parent":"7602","Name":"MAPILLI","Latitude":"-3.3739902610003","Longitude":"119.17116879651","Postal":"91345,91359"},{"Code":"7602042","Parent":"7602","Name":"TAPANGO","Latitude":"-3.3179294619998","Longitude":"119.26421109749","Postal":"91343,91341"},{"Code":"7602043","Parent":"7602","Name":"MATAKALI","Latitude":"-3.364211549999","Longitude":"119.29629773446","Postal":"91342,91352"},{"Code":"7602044","Parent":"7602","Name":"BULO","Latitude":"-3.2130995319994","Longitude":"119.13057459697","Postal":"91346,91353"},{"Code":"7602050","Parent":"7602","Name":"POLEWALI","Latitude":"-3.4153925439952","Longitude":"119.32438023733","Postal":"91311,91313,91314,91315,91319"},{"Code":"7602051","Parent":"7602","Name":"BINUANG","Latitude":"-3.4284674074993","Longitude":"119.42078944148","Postal":"91351,91311"},{"Code":"7602052","Parent":"7602","Name":"ANREAPI","Latitude":"-3.3441563900003","Longitude":"119.37453078451","Postal":"91341,91315"},{"Code":"7602061","Parent":"7602","Name":"MATANGNGA","Latitude":"-3.1867632009998","Longitude":"119.2319229245","Postal":"91344,91350"}]