[{"Code":"8207010","Parent":"8207","Name":"MOROTAI SELATAN","Latitude":"2.0841255140006","Longitude":"128.35370948203","Postal":"97771"},{"Code":"8207020","Parent":"8207","Name":"MOROTAI TIMUR","Latitude":"2.1929684854994","Longitude":"128.52927656996","Postal":"97775,97771,97777"},{"Code":"8207030","Parent":"8207","Name":"MOROTAI SELATAN BARAT","Latitude":"2.2890970405001","Longitude":"128.31087491801","Postal":"97773,97770"},{"Code":"8207040","Parent":"8207","Name":"MOROTAI JAYA","Latitude":"2.5027167195002","Longitude":"128.47720243251","Postal":"97774,97772"},{"Code":"8207050","Parent":"8207","Name":"MOROTAI UTARA","Latitude":"2.4005088744998","Longitude":"128.56069752699","Postal":"97772,97773"}]