[{"Code":"9106010","Parent":"9106","Name":"INANWATAN","Latitude":"-2.0961123325001","Longitude":"132.21985316151","Postal":"98464,98223"},{"Code":"9106011","Parent":"9106","Name":"METEMANI","Latitude":"-1.9973538044999","Longitude":"132.14996226199","Postal":"98463,98225"},{"Code":"9106020","Parent":"9106","Name":"KOKODA","Latitude":"-2.1566422775","Longitude":"132.39025782751","Postal":"98465,98221"},{"Code":"9106021","Parent":"9106","Name":"KAIS","Latitude":"-1.7480701114999","Longitude":"132.210494831","Postal":"98462,98222"},{"Code":"9106022","Parent":"9106","Name":"KOKODA UTARA","Latitude":"-2.0106917490004","Longitude":"132.40192685902","Postal":"98466,98224"},{"Code":"9106023","Parent":"9106","Name":"KAIS DARAT","Latitude":"","Longitude":"","Postal":"98226"},{"Code":"9106060","Parent":"9106","Name":"MOSWAREN","Latitude":"-1.5230703994999","Longitude":"132.248776733","Postal":"98461,98212"},{"Code":"9106070","Parent":"9106","Name":"TEMINABUAN","Latitude":"-1.4245905234996","Longitude":"132.04179486797","Postal":"98454,98216"},{"Code":"9106071","Parent":"9106","Name":"SEREMUK","Latitude":"-1.4375949359994","Longitude":"131.92654339896","Postal":"98435,98451,98214"},{"Code":"9106072","Parent":"9106","Name":"WAYER","Latitude":"-1.5318954994999","Longitude":"132.127001652","Postal":"98452,98215"},{"Code":"9106073","Parent":"9106","Name":"KONDA","Latitude":"-1.5942152895","Longitude":"131.994574917","Postal":"98458,98211"},{"Code":"9106074","Parent":"9106","Name":"SAIFI","Latitude":"-1.4796292974998","Longitude":"131.81530684549","Postal":"98453,98213"},{"Code":"9106080","Parent":"9106","Name":"SAWIAT","Latitude":"-1.1976167","Longitude":"131.93680938","Postal":"98456,98232"},{"Code":"9106081","Parent":"9106","Name":"FOKOUR","Latitude":"-1.1440608615","Longitude":"132.0147997965","Postal":"98457,98231"},{"Code":"9106082","Parent":"9106","Name":"SALKMA","Latitude":"","Longitude":"","Postal":"98233"}]