[{"Code":"9110010","Parent":"9110","Name":"AITINYO BARAT/ATHABU","Latitude":"-1.3684502780002","Longitude":"132.27959272752","Postal":"98056,98262"},{"Code":"9110011","Parent":"9110","Name":"AYAMARU SELATAN JAYA","Latitude":"-1.3902873144998","Longitude":"132.18231879448","Postal":"98244"},{"Code":"9110020","Parent":"9110","Name":"AITINYO","Latitude":"-1.4518955965001","Longitude":"132.36451597952","Postal":"98055,98261"},{"Code":"9110021","Parent":"9110","Name":"AITINYO TENGAH","Latitude":"-1.4353963430003","Longitude":"132.30096136754","Postal":"98264"},{"Code":"9110030","Parent":"9110","Name":"AIFAT SELATAN","Latitude":"-1.5531680700001","Longitude":"132.49959872801","Postal":"98054,98053,98272"},{"Code":"9110031","Parent":"9110","Name":"AIFAT TIMUR SELATAN","Latitude":"-1.4840531415","Longitude":"132.45320706451","Postal":"98275"},{"Code":"9110040","Parent":"9110","Name":"AIFAT","Latitude":"-1.2842008674999","Longitude":"132.47036104699","Postal":"98051,98271"},{"Code":"9110050","Parent":"9110","Name":"AITINYO UTARA","Latitude":"-1.3317922119997","Longitude":"132.35721187948","Postal":"98057,98265"},{"Code":"9110051","Parent":"9110","Name":"AITINYO RAYA","Latitude":"-1.3080244055004","Longitude":"132.33355099754","Postal":"98056,98263"},{"Code":"9110060","Parent":"9110","Name":"AYAMARU TIMUR","Latitude":"-1.2767789945011","Longitude":"132.27282355812","Postal":"98058,98246"},{"Code":"9110061","Parent":"9110","Name":"AYAMARU TIMUR SELATAN","Latitude":"-1.3300314874933","Longitude":"132.26622611983","Postal":"98056,98247"},{"Code":"9110070","Parent":"9110","Name":"AYAMARU","Latitude":"-1.2646945419967","Longitude":"132.18133357268","Postal":"98058,98240"},{"Code":"9110071","Parent":"9110","Name":"AYAMARU SELATAN","Latitude":"-1.314668869999","Longitude":"132.15386254141","Postal":"98243"},{"Code":"9110072","Parent":"9110","Name":"AYAMARU JAYA","Latitude":"-1.1900606939998","Longitude":"132.08945717248","Postal":"98242"},{"Code":"9110073","Parent":"9110","Name":"AYAMARU TENGAH","Latitude":"-1.2710539130007","Longitude":"132.22202862459","Postal":"98245"},{"Code":"9110074","Parent":"9110","Name":"AYAMARU BARAT","Latitude":"-1.2892785075002","Longitude":"132.0982188275","Postal":"98056,98241"},{"Code":"9110080","Parent":"9110","Name":"AYAMARU UTARA","Latitude":"-1.1945437355001","Longitude":"132.21404685652","Postal":"98059,98248"},{"Code":"9110081","Parent":"9110","Name":"AYAMARU UTARA TIMUR","Latitude":"-1.2367476400002","Longitude":"132.31327656903","Postal":"98249"},{"Code":"9110090","Parent":"9110","Name":"MARE","Latitude":"-1.0980758669997","Longitude":"132.23583925548","Postal":"98059,98251"},{"Code":"9110091","Parent":"9110","Name":"MARE SELATAN","Latitude":"-1.1688449010003","Longitude":"132.24440089154","Postal":"98056,98252"},{"Code":"9110100","Parent":"9110","Name":"AIFAT UTARA","Latitude":"-1.1612603275001","Longitude":"132.48272874952","Postal":"98051,98052,98277"},{"Code":"9110110","Parent":"9110","Name":"AIFAT TIMUR","Latitude":"-1.3224318595003","Longitude":"132.62136375704","Postal":"98053,98273"},{"Code":"9110111","Parent":"9110","Name":"AIFAT TIMUR TENGAH","Latitude":"-1.2258297789996","Longitude":"132.63012274745","Postal":"98276"},{"Code":"9110112","Parent":"9110","Name":"AIFAT TIMUR JAUH","Latitude":"-1.2922310644999","Longitude":"132.64821599948","Postal":"98274"}]