[{"Code":"9408040","Parent":"9408","Name":"YAPEN TIMUR","Latitude":"-1.8276196089996","Longitude":"136.71517540497","Postal":"98252,98644"},{"Code":"9408041","Parent":"9408","Name":"PANTURA YAPEN","Latitude":"-1.7246574074999","Longitude":"136.39935301099","Postal":"98645"},{"Code":"9408042","Parent":"9408","Name":"TELUK AMPIMOI","Latitude":"-1.8465008200002","Longitude":"136.52289888852","Postal":"98252,98642"},{"Code":"9408043","Parent":"9408","Name":"RAIMBAWI","Latitude":"-1.7761552949994","Longitude":"136.74693296596","Postal":"98252,98641"},{"Code":"9408044","Parent":"9408","Name":"PULAU KURUDU","Latitude":"-1.8504326380013","Longitude":"137.0036934446","Postal":"98252,98643"},{"Code":"9408050","Parent":"9408","Name":"ANGKAISERA","Latitude":"-1.8413751760002","Longitude":"136.37196416152","Postal":"98255,98655"},{"Code":"9408051","Parent":"9408","Name":"KEPULAUAN AMBAI","Latitude":"-1.9310314635004","Longitude":"136.34375762054","Postal":"98653"},{"Code":"9408052","Parent":"9408","Name":"YAWAKUKAT","Latitude":"","Longitude":"","Postal":"98654"},{"Code":"9408060","Parent":"9408","Name":"YAPEN SELATAN","Latitude":"-1.8416244534982","Longitude":"136.23969183737","Postal":"98211,98212,98213,98215,98612,98627"},{"Code":"9408061","Parent":"9408","Name":"KOSIWO","Latitude":"-1.8032818100002","Longitude":"136.08510456152","Postal":"98215,98632"},{"Code":"9408062","Parent":"9408","Name":"ANATAUREI","Latitude":"","Longitude":"","Postal":"98631"},{"Code":"9408070","Parent":"9408","Name":"YAPEN BARAT","Latitude":"-1.7812032585002","Longitude":"135.81395351452","Postal":"98253,98648"},{"Code":"9408071","Parent":"9408","Name":"WONAWA","Latitude":"-1.6481165835004","Longitude":"135.53459167304","Postal":"98253,98647"},{"Code":"9408072","Parent":"9408","Name":"PULAU YERUI","Latitude":"-1.4965260700001","Longitude":"135.18927764752","Postal":"98253,98646"},{"Code":"9408080","Parent":"9408","Name":"POOM","Latitude":"-1.6011393709998","Longitude":"135.68599700249","Postal":"98254,98652"},{"Code":"9408081","Parent":"9408","Name":"WINDESI","Latitude":"-1.6966319840001","Longitude":"136.01447187901","Postal":"98253,98254,98651"}]