[{"Code":"9410030","Parent":"9410","Name":"PANIAI TIMUR","Latitude":"-3.9420400655002","Longitude":"136.52508816551","Postal":"98765,98711,98714"},{"Code":"9410031","Parent":"9410","Name":"YATAMO","Latitude":"-3.9562640164998","Longitude":"136.31026012049","Postal":"98751,98725"},{"Code":"9410032","Parent":"9410","Name":"KEBO","Latitude":"-3.8133379540054","Longitude":"136.36288597269","Postal":"98754,98715"},{"Code":"9410033","Parent":"9410","Name":"PUGO DAGI","Latitude":"","Longitude":"","Postal":"98719"},{"Code":"9410034","Parent":"9410","Name":"WEGE MUKA","Latitude":"","Longitude":"","Postal":"98717"},{"Code":"9410035","Parent":"9410","Name":"WEGEE BINO","Latitude":"","Longitude":"","Postal":"98716"},{"Code":"9410036","Parent":"9410","Name":"YAGAI","Latitude":"","Longitude":"","Postal":"98718"},{"Code":"9410037","Parent":"9410","Name":"DEIYAI MIYO","Latitude":"","Longitude":"","Postal":"98725"},{"Code":"9410040","Parent":"9410","Name":"BIBIDA","Latitude":"-3.9819953685045","Longitude":"136.72883425315","Postal":"98752,98741"},{"Code":"9410041","Parent":"9410","Name":"DUMADAMA","Latitude":"-4.021947514501","Longitude":"136.94522828554","Postal":"98753,98742"},{"Code":"9410042","Parent":"9410","Name":"DOGOMO","Latitude":"","Longitude":"","Postal":"98742"},{"Code":"9410070","Parent":"9410","Name":"ARADIDE","Latitude":"-3.7791301520006","Longitude":"136.54191721153","Postal":"98766,98731"},{"Code":"9410071","Parent":"9410","Name":"EKADIDE","Latitude":"-3.8374302145009","Longitude":"136.56272630703","Postal":"98761,98733"},{"Code":"9410072","Parent":"9410","Name":"AWEIDA","Latitude":"","Longitude":"","Postal":"98732"},{"Code":"9410073","Parent":"9410","Name":"FAJAR TIMUR","Latitude":"","Longitude":"","Postal":""},{"Code":"9410074","Parent":"9410","Name":"TOPIYAI","Latitude":"","Longitude":"","Postal":"98734"},{"Code":"9410080","Parent":"9410","Name":"PANIAI BARAT","Latitude":"-3.8217637370005","Longitude":"136.22679486702","Postal":"98763,98723"},{"Code":"9410081","Parent":"9410","Name":"SIRIWO","Latitude":"-3.616610304999","Longitude":"136.13249381546","Postal":"98762,98724"},{"Code":"9410082","Parent":"9410","Name":"MUYE","Latitude":"","Longitude":"","Postal":"98721"},{"Code":"9410083","Parent":"9410","Name":"NAKAMA","Latitude":"","Longitude":"","Postal":"98722"},{"Code":"9410084","Parent":"9410","Name":"TELUK DEYA","Latitude":"","Longitude":"","Postal":"98727"},{"Code":"9410090","Parent":"9410","Name":"BOGOBAIDA","Latitude":"-3.5940544334997","Longitude":"136.36960577099","Postal":"98769,98737"},{"Code":"9410091","Parent":"9410","Name":"YOUTADI","Latitude":"","Longitude":"","Postal":"98737"},{"Code":"9410092","Parent":"9410","Name":"BAYA BIRU","Latitude":"","Longitude":"","Postal":"98737"}]