[{"Code":"9428030","Parent":"9428","Name":"WAROPEN ATAS","Latitude":"-2.4299102529998","Longitude":"137.29405207849","Postal":"99389,98681"},{"Code":"9428031","Parent":"9428","Name":"BENUKI","Latitude":"-2.3031252134999","Longitude":"137.628699751","Postal":"99388,98683"},{"Code":"9428032","Parent":"9428","Name":"SAWAI","Latitude":"-1.8526096914999","Longitude":"137.49174495","Postal":"99387,99389,98682"},{"Code":"9428040","Parent":"9428","Name":"MAMBERAMO ILIR","Latitude":"-1.8058108274999","Longitude":"138.0056770955","Postal":"99385,98691"},{"Code":"9428050","Parent":"9428","Name":"MAMBERAMO TENGAH","Latitude":"-2.359604565","Longitude":"138.2922185785","Postal":"99381,98692"},{"Code":"9428051","Parent":"9428","Name":"IWASO","Latitude":"","Longitude":"","Postal":""},{"Code":"9428060","Parent":"9428","Name":"MAMBERAMO TENGAH TIMUR","Latitude":"-2.722405244","Longitude":"138.02241280601","Postal":"99384,98693"},{"Code":"9428070","Parent":"9428","Name":"ROFAER","Latitude":"-2.8262128104999","Longitude":"137.956621835","Postal":"99382,99383,98695"},{"Code":"9428080","Parent":"9428","Name":"MAMBERAMO ULU","Latitude":"-3.0641631535","Longitude":"138.2060839265","Postal":"99382,99383,98694"}]