[{"Code":"9430010","Parent":"9430","Name":"MAKKI","Latitude":"-3.9825275890048","Longitude":"138.64331091667","Postal":"99588,99535,99565"},{"Code":"9430011","Parent":"9430","Name":"GUPURA","Latitude":"","Longitude":"","Postal":"99562"},{"Code":"9430012","Parent":"9430","Name":"KOLAWA","Latitude":"","Longitude":"","Postal":"99563"},{"Code":"9430013","Parent":"9430","Name":"GELOK BEAM","Latitude":"","Longitude":"","Postal":"99523,99561"},{"Code":"9430014","Parent":"9430","Name":"AWINA","Latitude":"","Longitude":"","Postal":"99572"},{"Code":"9430015","Parent":"9430","Name":"KULLY LANNY","Latitude":"","Longitude":"","Postal":"99564"},{"Code":"9430020","Parent":"9430","Name":"PIRIME","Latitude":"-4.002511617003","Longitude":"138.53187806711","Postal":"99537,99581"},{"Code":"9430021","Parent":"9430","Name":"BUGUK GONA","Latitude":"","Longitude":"","Postal":"99574"},{"Code":"9430022","Parent":"9430","Name":"MILIMBO","Latitude":"","Longitude":"","Postal":"99579"},{"Code":"9430023","Parent":"9430","Name":"GOLLO","Latitude":"","Longitude":"","Postal":"99576"},{"Code":"9430024","Parent":"9430","Name":"WIRINGGABUT","Latitude":"","Longitude":"","Postal":"99582"},{"Code":"9430030","Parent":"9430","Name":"TIOM","Latitude":"-3.9103319790013","Longitude":"138.30568849855","Postal":"99531,99593"},{"Code":"9430031","Parent":"9430","Name":"NOGI","Latitude":"","Longitude":"","Postal":"99592"},{"Code":"9430032","Parent":"9430","Name":"MOKONI","Latitude":"","Longitude":"","Postal":"99590"},{"Code":"9430033","Parent":"9430","Name":"NINAME","Latitude":"","Longitude":"","Postal":"99591"},{"Code":"9430034","Parent":"9430","Name":"YIGINUA","Latitude":"","Longitude":"","Postal":"99598"},{"Code":"9430035","Parent":"9430","Name":"TIOM OLLO","Latitude":"","Longitude":"","Postal":"99594"},{"Code":"9430036","Parent":"9430","Name":"YUGUNGWI","Latitude":"","Longitude":"","Postal":"99599"},{"Code":"9430037","Parent":"9430","Name":"LANNYNA","Latitude":"","Longitude":"","Postal":"99578"},{"Code":"9430040","Parent":"9430","Name":"BALINGGA","Latitude":"-4.0989665879997","Longitude":"138.38036767499","Postal":"99534,99586"},{"Code":"9430041","Parent":"9430","Name":"BALINGGA BARAT","Latitude":"","Longitude":"","Postal":"99584"},{"Code":"9430042","Parent":"9430","Name":"BRUWA","Latitude":"","Longitude":"","Postal":"99585"},{"Code":"9430043","Parent":"9430","Name":"AYUMNATI","Latitude":"","Longitude":"","Postal":"99573"},{"Code":"9430044","Parent":"9430","Name":"GOA BALIM","Latitude":"","Longitude":"","Postal":"99586"},{"Code":"9430050","Parent":"9430","Name":"KUYAWAGE","Latitude":"-4.0581632270005","Longitude":"137.94564337902","Postal":"99539,99587"},{"Code":"9430051","Parent":"9430","Name":"WANO BARAT","Latitude":"","Longitude":"","Postal":"99588,99596"},{"Code":"9430060","Parent":"9430","Name":"MALAGAINERI","Latitude":"-3.9393397400004","Longitude":"138.20668349052","Postal":"99533,99589"},{"Code":"9430061","Parent":"9430","Name":"MELAGAI","Latitude":"","Longitude":"","Postal":"99588"},{"Code":"9430070","Parent":"9430","Name":"TIOMNERI","Latitude":"-3.8399638905019","Longitude":"138.30047116707","Postal":"99538,99595"},{"Code":"9430071","Parent":"9430","Name":"WEREKA","Latitude":"","Longitude":"","Postal":"99597"},{"Code":"9430080","Parent":"9430","Name":"DIMBA","Latitude":"-3.8749687829798","Longitude":"138.50279807177","Postal":"99532,99575"},{"Code":"9430081","Parent":"9430","Name":"KELULOME","Latitude":"","Longitude":"","Postal":"99577"},{"Code":"9430082","Parent":"9430","Name":"NIKOGWE","Latitude":"","Longitude":"","Postal":"99580"},{"Code":"9430090","Parent":"9430","Name":"GAMELIA","Latitude":"-3.8847178145005","Longitude":"138.63102693002","Postal":"99536,99566"},{"Code":"9430091","Parent":"9430","Name":"KARU","Latitude":"","Longitude":"","Postal":"99568"},{"Code":"9430092","Parent":"9430","Name":"YILUK","Latitude":"","Longitude":"","Postal":"99571"},{"Code":"9430093","Parent":"9430","Name":"GUNA","Latitude":"","Longitude":"","Postal":"99523,99567"},{"Code":"9430100","Parent":"9430","Name":"POGA","Latitude":"-3.7840836234993","Longitude":"138.50229366896","Postal":"99536,99570"},{"Code":"9430101","Parent":"9430","Name":"MUARA","Latitude":"","Longitude":"","Postal":"99569"}]